EstablishmentID,CountyID,RCode,RCodeDesc,EstType,PremiseName,PermiseStreetNo,PremiseStreet,PremiseExtraAddrLine,PremiseCity,PremiseState,PremiseZip,InspectionIntervalDays,IsPayFee,IsStateOwned,Status,WaterProvider,SewageProvider,IsBonded,RenewalStatus,PermitPrinted,Language,RiskType,MenuType,IsCaterer,IsDriveThru,IsTrucksOnly,Area,MailAppIDDesc,MailPermitIDDesc,HoursOfOperation,DaysOfOperation,MonthsOfOperation,opening_date,renewal_sent_date,renewal_received_date,permit_print_date,permit_expiration_date,next_inspection_date,bond_expiration_date,Quantity1,Quantity1Unit,Quantity2,Quantity2Units,latitude,longitude,comments,TotalFeeAmt,PermitFeeAmt,InspectionFeeAmt,VarianceGranted,FollowUpDate,ObjectId
14595,255,615,FOOD PROCESSING OR STORAGE ESTABLISHMENT,BAKERY,KERNS KITCHEN INC,2420,AMPERE DRIVE,,LOUISVILLE,KY,40299,360,YES,NO,ACTIVE,PUBLIC,PUBLIC,NOT BONDED,RCVD,PRINTED,ENGLISH,1-HIGH,UNKNOWN,NO,NO,NO,,OWNER,OWNER,,,,,2023/10/13 00:00:00,2018/12/26 00:00:00,2018/12/26 00:00:00,2019/12/31 00:00:00,2020/05/16 00:00:00,,0,N/A,10000,SQ FEET,38.21859,-85.56709,,200,200,0,,,1
14601,255,615,FOOD PROCESSING OR STORAGE ESTABLISHMENT,BAKERY,KRISPY KREME DOUGHNUT CORP,3920,S 7TH ST RD,,LOUISVILLE,KY,40216-4193,360,YES,NO,ACTIVE,PUBLIC,PUBLIC,NOT BONDED,RCVD,PRINTED,ENGLISH,2,UNKNOWN,NO,NO,NO,,OWNER,OWNER,,,,,2023/10/13 00:00:00,2018/12/11 00:00:00,2018/12/11 00:00:00,2019/12/31 00:00:00,2017/11/05 00:00:00,,0,N/A,4342,SQ FEET,38.11593,-85.4829,,160,160,0,,,2
14607,255,615,FOOD PROCESSING OR STORAGE ESTABLISHMENT,PRODUCE STORAGE WAREHOUSE/REPACKER,KY. MUSHROOM CO. OF LOUISVILLE,4601,JENNINGS LANE UNIT #30,LOUISVILLE PRODUCE TERMINAL,LOUISVILLE,KY,40218,360,YES,NO,ACTIVE,PUBLIC,PUBLIC,NOT BONDED,RCVD,PRINTED,ENGLISH,1-HIGH,UNKNOWN,NO,NO,NO,,OWNER,OWNER,,,,,2023/10/13 00:00:00,2018/12/27 00:00:00,2018/12/27 00:00:00,2019/12/31 00:00:00,2018/07/12 00:00:00,,0,N/A,1875,SQ FEET,38.18922,-85.6841,,160,160,0,,,3
14615,255,615,FOOD PROCESSING OR STORAGE ESTABLISHMENT,AMBIENT WAREHOUSE/DISTRIBUTOR/REPACKER,DARE TO CARE - SENIOR COMMODITIES,3360,COMMERCE CENTER PLACE,,LOUISVILLE,KY,40211,1080,YES,YES,ACTIVE,PUBLIC,PUBLIC,N/A,RCVD,PRINTED,ENGLISH,3,UNKNOWN,NO,NO,NO,,OWNER,OWNER,,,,,2023/10/13 00:00:00,2018/12/14 00:00:00,2018/12/14 00:00:00,2019/12/31 00:00:00,2017/04/23 00:00:00,,0,N/A,18000,SQ FEET,38.22186,-85.81165,,200,200,0,,,4
14621,255,615,FOOD PROCESSING OR STORAGE ESTABLISHMENT,AMBIENT WAREHOUSE/DISTRIBUTOR/REPACKER,"SMITHFIELD DIRECT, LLC",2522,PLANTSIDE DR,,LOUISVILLE,KY,40299,1080,YES,NO,ACTIVE,PUBLIC,PUBLIC,NOT BONDED,RCVD,PRINTED,ENGLISH,3,UNKNOWN,NO,NO,NO,,OWNER,OWNER,,,,,2023/10/13 00:00:00,2018/12/11 00:00:00,2018/12/11 00:00:00,2019/12/31 00:00:00,2022/05/14 00:00:00,,0,N/A,15000,SQ FEET,38.20791,-85.56045,,200,200,0,,,5
14644,255,615,FOOD PROCESSING OR STORAGE ESTABLISHMENT,GENERAL FOOD MANUFACTURER/PROCESSOR,BLENDEX COMPANY,11208,ELECTRON DR,,LOUISVILLE,KY,40299,360,YES,NO,ACTIVE,PUBLIC,PUBLIC,NOT BONDED,RCVD,PRINTED,ENGLISH,1-HIGH,UNKNOWN,NO,NO,NO,,OWNER,OWNER,,,,,2023/10/13 00:00:00,2018/12/14 00:00:00,2018/12/14 00:00:00,2019/12/31 00:00:00,2016/03/06 00:00:00,,0,N/A,72960,SQ FEET,38.2013,-85.55193,,400,400,0,,,6
14647,255,615,FOOD PROCESSING OR STORAGE ESTABLISHMENT,GENERAL FOOD MANUFACTURER/PROCESSOR,BLOEMER FOOD SALES CO,925,S 7TH ST,,LOUISVILLE,KY,40203,360,YES,NO,ACTIVE,PUBLIC,PUBLIC,N/A,RCVD,PRINTED,ENGLISH,1-HIGH,UNKNOWN,NO,NO,NO,,PREMISE,PREMISE,,,,,2023/10/13 00:00:00,2018/12/11 00:00:00,2018/12/11 00:00:00,2019/12/31 00:00:00,2016/12/05 00:00:00,,0,N/A,1000,SQ FEET,38.24197,-85.76408,,120,120,0,,,7
14674,255,615,FOOD PROCESSING OR STORAGE ESTABLISHMENT,PRODUCE PROCESSOR,"PAUL'S FRUIT MARKET- UNIT 48 & 50, LOU. PROD",4601,JENNINGS LANE,,LOUISVILLE,KY,40218,360,YES,NO,ACTIVE,PUBLIC,PUBLIC,NOT BONDED,RCVD,PRINTED,ENGLISH,1-HIGH,UNKNOWN,NO,NO,NO,,OWNER,BILLING,,,,,2023/10/13 00:00:00,2019/01/30 00:00:00,2019/01/30 00:00:00,2019/12/31 00:00:00,2020/08/03 00:00:00,,0,N/A,5000,SQ FEET,38.18925,-85.68342,,160,160,0,,,8
14677,255,615,FOOD PROCESSING OR STORAGE ESTABLISHMENT,AMBIENT WAREHOUSE/DISTRIBUTOR/REPACKER,DAVIS COOKIE COMPANY,2522,WEST BROADWAY,,LOUISVILLE,KY,40211,1080,YES,NO,ACTIVE,PUBLIC,PUBLIC,NOT BONDED,RCVD,PRINTED,ENGLISH,3,UNKNOWN,NO,NO,NO,,OWNER,OWNER,,,,,2023/10/13 00:00:00,2018/12/13 00:00:00,2018/12/13 00:00:00,2019/12/31 00:00:00,2020/10/28 00:00:00,,0,N/A,15000,SQ FEET,38.24928,-85.79434,,200,200,0,,,9
14678,255,615,FOOD PROCESSING OR STORAGE ESTABLISHMENT,AMBIENT WAREHOUSE/DISTRIBUTOR/REPACKER,PEPSI AMERICANS KENTUCKIANA DIVISION,4008,CRITTENDEN DRIVE,,LOUISVILLE,KY,40209,1080,YES,NO,ACTIVE,PUBLIC,PUBLIC,NOT BONDED,RCVD,PRINTED,ENGLISH,3,UNKNOWN,NO,NO,NO,,OWNER,OWNER,,,,1992/09/22 00:00:00,2023/10/13 00:00:00,2018/12/13 00:00:00,2018/12/13 00:00:00,2019/12/31 00:00:00,2016/08/13 00:00:00,,0,N/A,120000,SQ FEET,38.19556,-85.75118,,500,500,0,,,10
14679,255,615,FOOD PROCESSING OR STORAGE ESTABLISHMENT,GENERAL FOOD MANUFACTURER/PROCESSOR,DAWN FOOD PRODUCTS,6303,KENJOY DR,,LOUISVILLE,KY,40214,360,YES,NO,ACTIVE,PUBLIC,PUBLIC,NOT BONDED,SENT,N/A,ENGLISH,1-HIGH,UNKNOWN,NO,NO,NO,,OWNER,OWNER,,,,,2023/10/13 00:00:00,2019/01/14 00:00:00,2019/01/14 00:00:00,2019/12/31 00:00:00,2015/06/05 00:00:00,,0,N/A,80000,SQ FEET,38.16666,-85.75867,,400,400,0,,,11
14692,255,615,FOOD PROCESSING OR STORAGE ESTABLISHMENT,CARBONATED BEVERAGE PLANT,KEURIG DR. PEPPER,6207,STRAWBERRY LN,,LOUISVILLE,KY,40214,360,YES,NO,ACTIVE,PUBLIC,PUBLIC,NOT BONDED,RCVD,PRINTED,ENGLISH,1-HIGH,UNKNOWN,NO,NO,NO,,OWNER,BILLING,,,,,2023/10/13 00:00:00,2018/12/13 00:00:00,2018/12/13 00:00:00,2019/12/31 00:00:00,2018/06/08 00:00:00,,0,N/A,125000,SQ FEET,38.16685,-85.75404,,500,500,0,,,12
14695,255,615,FOOD PROCESSING OR STORAGE ESTABLISHMENT,SALVAGE PROCESSOR,DARE TO CARE INC.,5803,FERN VALLEY ROAD,,LOUISVILLE,KY,40228,540,YES,NO,ACTIVE,PUBLIC,PUBLIC,NOT BONDED,RCVD,PRINTED,ENGLISH,2,UNKNOWN,NO,NO,NO,,OWNER,OWNER,,,,,2023/10/13 00:00:00,2018/12/17 00:00:00,2018/12/17 00:00:00,2019/12/31 00:00:00,2016/05/27 00:00:00,,0,N/A,40000,SQ FEET,38.15634,-85.65305,,300,300,0,,,13
14701,255,615,FOOD PROCESSING OR STORAGE ESTABLISHMENT,AMBIENT WAREHOUSE/DISTRIBUTOR/REPACKER,DRYDEN PROVISION,1016,E. WASHINGTON,,LOUISVILLE,KY,40201,1080,YES,NO,ACTIVE,PUBLIC,PUBLIC,NOT BONDED,RCVD,PRINTED,ENGLISH,3,UNKNOWN,NO,NO,NO,,OWNER,OWNER,,,,,2023/10/13 00:00:00,2018/12/11 00:00:00,2018/12/11 00:00:00,2019/12/31 00:00:00,2021/01/30 00:00:00,,0,N/A,14400,SQ FEET,38.25491,-85.73288,,200,200,0,,,14
14704,255,615,FOOD PROCESSING OR STORAGE ESTABLISHMENT,GRAIN STORAGE OR MILL,CONSOLIDATED GRAIN & BARGE INC,1047,S 15TH ST,,LOUISVILLE,KY,40210,1080,YES,NO,ACTIVE,PUBLIC,PUBLIC,NOT BONDED,RCVD,PRINTED,ENGLISH,3,UNKNOWN,NO,NO,NO,,OWNER,OWNER,,,,1991/12/09 00:00:00,2023/10/13 00:00:00,2019/05/22 00:00:00,2019/05/22 00:00:00,2019/12/31 00:00:00,2018/09/29 00:00:00,,0,N/A,29000,SQ FEET,38.23949,-85.77722,,300,300,0,,,15
14722,255,615,FOOD PROCESSING OR STORAGE ESTABLISHMENT,PRODUCE STORAGE WAREHOUSE/REPACKER,"STANLEY BROS PROD., INC. - L'VILLE PROD. TERM.",4601,JENNINGS LANE,,LOUISVILLE,KY,40218,360,YES,NO,ACTIVE,PUBLIC,PUBLIC,N/A,RCVD,PRINTED,ENGLISH,1-HIGH,UNKNOWN,NO,NO,NO,,OWNER,OWNER,,,,,2023/10/13 00:00:00,2018/12/14 00:00:00,2018/12/14 00:00:00,2019/12/31 00:00:00,2017/01/21 00:00:00,,0,N/A,13125,SQ FEET,38.1897,-85.68499,,200,200,0,,,16
14739,255,615,FOOD PROCESSING OR STORAGE ESTABLISHMENT,AMBIENT WAREHOUSE/DISTRIBUTOR/REPACKER,GARDNER & LOSE,1720,LEROY AVE,,LOUISVILLE,KY,40216,1080,YES,NO,ACTIVE,PUBLIC,PUBLIC,NOT BONDED,RCVD,PRINTED,ENGLISH,3,UNKNOWN,NO,NO,NO,,OWNER,OWNER,,,,,2023/10/13 00:00:00,2018/12/14 00:00:00,2018/12/14 00:00:00,2019/12/31 00:00:00,2017/05/18 00:00:00,,0,N/A,2080,SQ FEET,38.19481,-85.80463,,160,160,0,,,17
14746,255,615,FOOD PROCESSING OR STORAGE ESTABLISHMENT,AMBIENT WAREHOUSE/DISTRIBUTOR/REPACKER,WHITE CASTLE SYSTEM INC,4730,ALLMOND AVE,,LOUISVILLE,KY,40209,1080,YES,NO,ACTIVE,PUBLIC,PUBLIC,NOT BONDED,RCVD,PRINTED,ENGLISH,3,UNKNOWN,NO,NO,NO,,OWNER,OWNER,,,,,2023/10/13 00:00:00,2018/12/17 00:00:00,2018/12/17 00:00:00,2019/12/31 00:00:00,2022/07/22 00:00:00,,0,N/A,16135,SQ FEET,38.17766,-85.75811,,200,200,0,,,18
14750,255,615,FOOD PROCESSING OR STORAGE ESTABLISHMENT,FOOD COLORS/FLAVOR ADDITIVIES MANUF,"D.D. WILLIAMSON CO., INC.",1901,PAYNE STREET,,LOUISVILLE,KY,40206,360,YES,NO,ACTIVE,PUBLIC,PUBLIC,NOT BONDED,RCVD,PRINTED,ENGLISH,1-HIGH,UNKNOWN,NO,NO,NO,,OWNER,OWNER,,,,,2023/10/13 00:00:00,2018/11/20 00:00:00,2018/11/20 00:00:00,2019/12/31 00:00:00,2017/08/26 00:00:00,,0,N/A,23000,SQ FEET,38.25318,-85.71288,,300,300,0,,,19
14768,255,615,FOOD PROCESSING OR STORAGE ESTABLISHMENT,PRODUCE STORAGE WAREHOUSE/REPACKER,BLONDIE HOFFMAN PRODUCE,4601,JENNINGS LANE,,LOUISVILLE,KY,40218,360,YES,NO,ACTIVE,PUBLIC,PUBLIC,N/A,RCVD,PRINTED,ENGLISH,1-HIGH,UNKNOWN,NO,NO,NO,,OWNER,OWNER,,,,,2023/10/13 00:00:00,2018/12/17 00:00:00,2018/12/17 00:00:00,2019/12/31 00:00:00,2016/06/05 00:00:00,,0,N/A,4500,SQ FEET,38.18957,-85.68422,,160,160,0,,,20
14770,255,615,FOOD PROCESSING OR STORAGE ESTABLISHMENT,PRODUCE PROCESSOR,HORTON FRUIT CO INC,4701,JENNINGS LN,,LOUISVILLE,KY,40218,360,YES,NO,ACTIVE,PUBLIC,PUBLIC,NOT BONDED,RCVD,PRINTED,ENGLISH,1-HIGH,UNKNOWN,NO,NO,NO,,OWNER,OWNER,,,,,2023/10/13 00:00:00,2018/12/17 00:00:00,2018/12/17 00:00:00,2019/12/31 00:00:00,2017/02/05 00:00:00,,0,N/A,41000,SQ FEET,38.11266,-85.41087,,400,400,0,,,21
19075,255,615,FOOD PROCESSING OR STORAGE ESTABLISHMENT,AMBIENT WAREHOUSE/DISTRIBUTOR/REPACKER,"SCHWAN'S HOME SERVICE, INC.",267,CARTER AVE,,LOUISVILLE,KY,40229,360,YES,NO,ACTIVE,PUBLIC,PUBLIC,NOT BONDED,RCVD,PRINTED,ENGLISH,1-HIGH,UNKNOWN,NO,NO,NO,,OWNER,OWNER,,,,1990/07/17 00:00:00,2023/10/13 00:00:00,2018/11/20 00:00:00,2018/11/20 00:00:00,2019/12/31 00:00:00,2017/02/10 00:00:00,,0,N/A,4800,SQ FEET,38.07288,-85.69017,,160,160,0,,,22
21342,255,615,FOOD PROCESSING OR STORAGE ESTABLISHMENT,BAKERY,"ADAM MATTHEWS, INC.",2104,PLANTSIDE DR,,LOUISVILLE,KY,40299,360,YES,NO,ACTIVE,PUBLIC,PUBLIC,NOT BONDED,RCVD,PRINTED,ENGLISH,1-HIGH,UNKNOWN,NO,NO,NO,,OWNER,OWNER,,,,1990/04/10 00:00:00,2023/10/13 00:00:00,2018/12/11 00:00:00,2018/12/11 00:00:00,2019/12/31 00:00:00,2018/04/27 00:00:00,,0,N/A,30000,SQ FEET,38.21569,-85.57207,,300,300,0,,,23
23219,255,615,FOOD PROCESSING OR STORAGE ESTABLISHMENT,AMBIENT WAREHOUSE/DISTRIBUTOR/REPACKER,ARAMARK REFRESHMENT SERVICES,3600,CHAMBERLAIN LN,,LOUISVILLE,KY,40222,1080,YES,NO,ACTIVE,PUBLIC,PUBLIC,NOT BONDED,RCVD,PRINTED,ENGLISH,3,UNKNOWN,NO,NO,NO,,OWNER,OWNER,,,,1991/08/12 00:00:00,2023/10/13 00:00:00,2018/12/26 00:00:00,2018/12/26 00:00:00,2019/12/31 00:00:00,2022/05/15 00:00:00,,0,N/A,12000,SQ FEET,38.29806,-85.54288,,200,200,0,,,24
23811,255,615,FOOD PROCESSING OR STORAGE ESTABLISHMENT,GENERAL FOOD MANUFACTURER/PROCESSOR,"AAK USA K1-K2, LLC",2520,S 7TH ST,,LOUISVILLE,KY,40208,360,YES,NO,ACTIVE,PUBLIC,PUBLIC,NOT BONDED,RCVD,PRINTED,ENGLISH,1-HIGH,UNKNOWN,NO,NO,NO,,OWNER,OWNER,,,,1992/08/11 00:00:00,2023/10/13 00:00:00,2018/12/14 00:00:00,2018/12/14 00:00:00,2019/12/31 00:00:00,2016/10/03 00:00:00,,0,N/A,120000,SQ FEET,38.21561,-85.78415,,500,500,0,,,25
26268,255,615,FOOD PROCESSING OR STORAGE ESTABLISHMENT,GENERAL FOOD MANUFACTURER/PROCESSOR,"CONAGRA FOODS, PACKAGED FOODS HOLDINGS, PLANT #1",12730-H,WESTPORT ROAD,,LOUISVILLE,KY,40245,360,YES,NO,ACTIVE,PUBLIC,PUBLIC,NOT BONDED,RCVD,PRINTED,ENGLISH,1-HIGH,UNKNOWN,NO,NO,NO,,OWNER,OWNER,,,,,2023/10/13 00:00:00,2018/12/14 00:00:00,2018/12/14 00:00:00,2019/12/31 00:00:00,2016/11/07 00:00:00,,0,N/A,130000,SQ FEET,38.29716,-85.5127,,500,500,0,,,26
26598,255,615,FOOD PROCESSING OR STORAGE ESTABLISHMENT,AMBIENT WAREHOUSE/DISTRIBUTOR/REPACKER,SYSCO-LOUISVILLE FOOD SERVICES,7705,NATIONAL TURNPIKE,,LOUISVILLE,KY,40214,1080,YES,NO,ACTIVE,PUBLIC,PUBLIC,NOT BONDED,RCVD,PRINTED,ENGLISH,3,UNKNOWN,NO,NO,NO,,OWNER,OWNER,,,,,2023/10/13 00:00:00,2018/12/14 00:00:00,2018/12/14 00:00:00,2019/12/31 00:00:00,2018/07/15 00:00:00,,0,N/A,225000,SQ FEET,38.14054,-85.75278,,600,600,0,,,27
28955,56,625,MOBILE HOME/REC VEHICLE PARKS,MOBILE HOME / REC. VEHICLE PARK,ARMORED ACRES,15811,DIXIE HWY,,WEST POINT,KY,40177,270,YES,NO,ACTIVE,PUBLIC,PRIVATE,NOT BONDED,RCVD,PRINTED,ENGLISH,,UNKNOWN,NO,NO,NO,N/A,OWNER,OWNER,,,,2005/09/23 00:00:00,2023/03/30 00:00:00,2023/04/06 00:00:00,2023/04/06 00:00:00,2024/06/30 00:00:00,2024/07/08 00:00:00,,30,MH SPACES,0,RV SPACES,38.223,-85.9162,,375,150,225,,,28
28966,56,625,MOBILE HOME/REC VEHICLE PARKS,MOBILE HOME / REC. VEHICLE PARK,CEDAR HEIGHTS MOBILE HOME PARK,9500,BARN RD,,LOUISVILLE,KY,40291,360,YES,NO,ACTIVE,PUBLIC,PRIVATE,NOT BONDED,RCVD,PRINTED,ENGLISH,,UNKNOWN,NO,NO,NO,N/A,OWNER,OWNER,,,,1970/07/16 00:00:00,2023/03/30 00:00:00,2023/06/13 00:00:00,2023/06/13 00:00:00,2024/06/30 00:00:00,2024/10/20 00:00:00,,398,MH SPACES,0,RV SPACES,38.1342,-85.597,,675,150,525,,,29
28967,56,625,MOBILE HOME/REC VEHICLE PARKS,MOBILE HOME / REC. VEHICLE PARK,CLARK MOBILE HOME PARK,5209,CANE RUN RD,,LOUISVILLE,KY,40216,270,YES,NO,ACTIVE,PUBLIC,PRIVATE,NOT BONDED,RCVD,PRINTED,ENGLISH,,UNKNOWN,NO,NO,NO,N/A,OWNER,OWNER,,,,1965/07/01 00:00:00,2023/03/30 00:00:00,2023/04/05 00:00:00,2023/04/05 00:00:00,2024/06/30 00:00:00,2024/07/29 00:00:00,,66,MH SPACES,0,RV SPACES,38.176,-85.8756,,450,150,300,,,30
28972,56,625,MOBILE HOME/REC VEHICLE PARKS,MOBILE HOME / REC. VEHICLE PARK,BARRINGTON POINTE,1321,GLENGARRY DR,,FAIRDALE,KY,40118,360,YES,NO,ACTIVE,PUBLIC,PUBLIC,NOT BONDED,RCVD,PRINTED,ENGLISH,,UNKNOWN,NO,NO,NO,N/A,OWNER,OWNER,,,,1971/08/02 00:00:00,2023/03/30 00:00:00,2023/04/24 00:00:00,2023/04/24 00:00:00,2024/06/30 00:00:00,2024/10/18 00:00:00,,493,MH SPACES,0,RV SPACES,38.1243,-85.7418,,750,150,600,,,31
28975,56,625,MOBILE HOME/REC VEHICLE PARKS,MOBILE HOME / REC. VEHICLE PARK,LAZY ACRES MOBILE HOME PARK,5601,CANE RUN RD,,LOUISVILLE,KY,40258,270,YES,NO,ACTIVE,PUBLIC,PRIVATE,NOT BONDED,RCVD,PRINTED,ENGLISH,,UNKNOWN,NO,NO,NO,N/A,OWNER,OWNER,,,,1966/04/05 00:00:00,2023/03/30 00:00:00,2023/05/24 00:00:00,2023/05/24 00:00:00,2024/06/30 00:00:00,2024/07/16 00:00:00,,212,MH SPACES,0,RV SPACES,38.169,-85.8918,"3-31-23: Changed owner & billing address to 3374 Shore Pkwy Ste 2C, Brooklyn, NY 11235 per address issues report from Waystar. Verified the address via the KY SOS Website.",600,150,450,,,32
28987,56,625,MOBILE HOME/REC VEHICLE PARKS,MOBILE HOME / REC. VEHICLE PARK,WOODLAND ESTATES MHP,8201,MINORS LANE,,LOUISVILLE,KY,40219,270,YES,NO,ACTIVE,PUBLIC,PRIVATE,NOT BONDED,RCVD,PRINTED,ENGLISH,,UNKNOWN,NO,NO,NO,N/A,OWNER,OWNER,,,,1970/03/10 00:00:00,2023/03/30 00:00:00,2023/09/12 00:00:00,2023/09/12 00:00:00,2024/06/30 00:00:00,2024/07/29 00:00:00,,86,MH SPACES,0,RV SPACES,38.1292,-85.705,,450,150,300,,,33
28993,56,625,MOBILE HOME/REC VEHICLE PARKS,MOBILE HOME / REC. VEHICLE PARK,ASHLEY POINTE MHP,1115,PENILE RD,,LOUISVILLE,KY,40272,270,YES,NO,ACTIVE,PUBLIC,PUBLIC,NOT BONDED,RCVD,PRINTED,ENGLISH,,UNKNOWN,NO,NO,NO,N/A,OWNER,OWNER,,,,1998/01/12 00:00:00,2023/03/30 00:00:00,2023/04/24 00:00:00,2023/04/24 00:00:00,2024/06/30 00:00:00,2024/07/22 00:00:00,,335,MH SPACES,0,RV SPACES,38.1153,-85.7873,,675,150,525,,,34
28999,299,606,VENDING MACHINES,VENDING MACHINE COMPANY,BREAKTIME VENDING SOUTHEAST DBA TOTAL VEND,4710,ROBARDS LANE,,LOUISVILLE,KY,40218,720,YES,NO,ACTIVE,PUBLIC,PUBLIC,NOT BONDED,RCVD,PRINTED,ENGLISH,,UNKNOWN,NO,NO,NO,,OWNER,OWNER,,,,1988/06/01 00:00:00,2023/03/30 00:00:00,2023/05/08 00:00:00,2023/05/08 00:00:00,2024/06/30 00:00:00,2016/10/10 00:00:00,,52,VENDING MACHINES,0,COMMISARIES,0,0,,250,250,0,,,35
29012,56,695,SWIMMING AREA,SWIMMING POOL,CHARLESTOWN OF DOUGLASS HILLS,407,CHARLESTOWN COURT,,LOUISVILLE,KY,40243,180,YES,NO,ACTIVE,PUBLIC,PUBLIC,NOT BONDED,SENT,N/A,ENGLISH,,UNKNOWN,NO,NO,NO,AREA 1,OWNER,OWNER,,,,1988/08/02 00:00:00,2023/03/01 00:00:00,2023/05/04 00:00:00,2023/05/04 00:00:00,2024/04/30 00:00:00,2024/02/26 00:00:00,,94626,GALLONS,2450,FEET,38.24313,-85.55323,,300,100,200,,,36
29022,56,695,SWIMMING AREA,SWIMMING POOL,RESIDENCE INN BY MARRIOTT,120,N HURSTBOURNE PKWY,,LOUISVILLE,KY,40222,180,YES,NO,ACTIVE,PUBLIC,PUBLIC,NOT BONDED,SENT,N/A,ENGLISH,,UNKNOWN,NO,NO,NO,AREA 2,BILLING,BILLING,,,,1988/06/02 00:00:00,2023/03/01 00:00:00,2023/04/05 00:00:00,2023/04/05 00:00:00,2024/04/30 00:00:00,2024/01/21 00:00:00,,11801,GALLONS,380,FEET,38.24788,-85.57873,,190,100,90,,,37
29025,56,695,SWIMMING AREA,SWIMMING POOL,SHELBY HOUSE,8605,SHELBYVILLE ROAD UNIT 231,,LOUISVILLE,KY,40222,180,YES,NO,ACTIVE,PUBLIC,PUBLIC,NOT BONDED,SENT,N/A,ENGLISH,,UNKNOWN,NO,NO,NO,AREA 2,OWNER,OWNER,,,,1988/06/02 00:00:00,2023/03/01 00:00:00,2023/04/24 00:00:00,2023/04/24 00:00:00,2024/04/30 00:00:00,2024/01/20 00:00:00,,23100,GALLONS,770,FEET,38.2492,-85.59437,,190,100,90,,2022-06-23 00:00:00,38
29029,56,620,HOTEL OR MOTELS,HOTEL / MOTEL,LITTLE BIFF'S MOTEL,13305,DIXIE HWY,,LOUISVILLE,KY,40272,360,YES,NO,ACTIVE,PUBLIC,PUBLIC,NOT BONDED,RCVD,PRINTED,ENGLISH,,UNKNOWN,NO,NO,NO,N/A,OWNER,OWNER,,,12,1988/06/02 00:00:00,2023/10/13 00:00:00,2022/11/16 00:00:00,2022/11/16 00:00:00,2023/12/31 00:00:00,2023/10/14 00:00:00,,9,ROOMS,0,N/A,38.63,-85.8858,,250,100,150,,,39
29030,56,620,HOTEL OR MOTELS,HOTEL / MOTEL,LOUISVILLE MANOR MOTEL,4600,DIXIE HWY,,LOUISVILLE,KY,40216,360,YES,NO,ACTIVE,PUBLIC,PUBLIC,NOT BONDED,RCVD,PRINTED,ENGLISH,,UNKNOWN,NO,NO,NO,N/A,OWNER,OWNER,,,,1988/06/02 00:00:00,2023/10/13 00:00:00,2023/11/08 00:00:00,2023/11/08 00:00:00,2024/12/31 00:00:00,2024/03/30 00:00:00,,54,ROOMS,0,N/A,38.1775,-85.8205,,300,100,200,,,40
29032,56,620,HOTEL OR MOTELS,HOTEL / MOTEL,ECONO LODGE,401,S. 2ND ST,,LOUISVILLE,KY,40202,360,YES,NO,ACTIVE,PUBLIC,PUBLIC,NOT BONDED,RCVD,PRINTED,ENGLISH,,UNKNOWN,NO,NO,NO,N/A,OWNER,OWNER,,,,1988/06/02 00:00:00,2023/10/13 00:00:00,2023/10/31 00:00:00,2023/10/31 00:00:00,2024/12/31 00:00:00,2024/02/25 00:00:00,,97,ROOMS,0,N/A,38.2523,-85.7528,,300,100,200,,,41
29037,56,620,HOTEL OR MOTELS,HOTEL / MOTEL,BUDGETEL INN,3304,BARDSTOWN RD,,LOUISVILLE,KY,40218,360,YES,NO,ACTIVE,PUBLIC,PUBLIC,NOT BONDED,RCVD,PRINTED,ENGLISH,,UNKNOWN,NO,NO,NO,N/A,OWNER,OWNER,,,,1988/06/02 00:00:00,2023/10/13 00:00:00,2023/11/02 00:00:00,2023/11/02 00:00:00,2024/12/31 00:00:00,2024/10/12 00:00:00,,187,ROOMS,0,N/A,38.207,-85.6691,,325,100,225,,2022-11-07 00:00:00,42
29055,56,620,HOTEL OR MOTELS,HOTEL / MOTEL,DAYS INN AIRPORT,2905,FERN VALLEY RD,,LOUISVILLE,KY,40213,360,YES,NO,ACTIVE,PUBLIC,PUBLIC,NOT BONDED,RCVD,PRINTED,ENGLISH,,UNKNOWN,NO,NO,NO,N/A,OWNER,OWNER,24,7,12,1988/06/02 00:00:00,2023/10/13 00:00:00,2023/11/09 00:00:00,2023/11/09 00:00:00,2024/12/31 00:00:00,2024/05/13 00:00:00,,109,ROOMS,0,N/A,38.1576,-85.7099,,325,100,225,,,43
29064,56,620,HOTEL OR MOTELS,HOTEL / MOTEL,GALT HOUSE,140,N. 4TH ST,,LOUISVILLE,KY,40202,360,YES,NO,ACTIVE,PUBLIC,PUBLIC,NOT BONDED,RCVD,PRINTED,ENGLISH,,UNKNOWN,NO,NO,NO,N/A,OWNER,OWNER,,,,1988/06/02 00:00:00,2023/10/13 00:00:00,2022/12/20 00:00:00,2022/12/20 00:00:00,2023/12/31 00:00:00,2024/06/06 00:00:00,,639,ROOMS,0,N/A,38.2581,-85.7568,,450,100,350,,,44
29066,56,620,HOTEL OR MOTELS,HOTEL / MOTEL,RESIDENCE INN BY MARRIOTT,120,N HURSTBOURNE PKWY,,LOUISVILLE,KY,40222,360,YES,NO,ACTIVE,PUBLIC,PUBLIC,NOT BONDED,RCVD,PRINTED,ENGLISH,,UNKNOWN,NO,NO,NO,N/A,BILLING,OWNER,,,,2010/01/11 00:00:00,2023/10/13 00:00:00,2023/11/15 00:00:00,2023/11/15 00:00:00,2024/12/31 00:00:00,2023/12/10 00:00:00,,96,ROOMS,0,N/A,38.2481,-85.5788,,300,100,200,,,45
29072,56,620,HOTEL OR MOTELS,HOTEL / MOTEL,GALT HOUSE EAST,140,N. 4TH ST,,LOUISVILLE,KY,40202,360,YES,NO,ACTIVE,PUBLIC,PUBLIC,NOT BONDED,RCVD,PRINTED,ENGLISH,,UNKNOWN,NO,NO,NO,N/A,OWNER,OWNER,,,,1988/06/02 00:00:00,2023/10/13 00:00:00,2022/12/20 00:00:00,2022/12/20 00:00:00,2023/12/31 00:00:00,2024/06/06 00:00:00,,656,ROOMS,0,N/A,38.2581,-85.7568,,450,100,350,,,46
29074,56,620,HOTEL OR MOTELS,HOTEL / MOTEL,RED ROOF INN #7134,3322,RED ROOF INN PLACE,,LOUISVILLE,KY,40218,360,YES,NO,ACTIVE,PUBLIC,PUBLIC,NOT BONDED,RCVD,PRINTED,ENGLISH,,UNKNOWN,NO,NO,NO,N/A,OWNER,OWNER,,,,1988/06/02 00:00:00,2023/10/13 00:00:00,2022/11/16 00:00:00,2022/11/16 00:00:00,2023/12/31 00:00:00,2024/05/06 00:00:00,,110,ROOMS,0,N/A,38.2005,-85.6874,,325,100,225,,2023-05-22 00:00:00,47
29104,56,640,SEPTIC TANK CLEANING VEHICLES,SEPTIC TANK CLEANING BUSINESS/VEHICLE,BOGARDS SEPTIC TANK CLEANING,9606,WILLOWWOOD WAY,,LOUISVILLE,KY,40299,360,YES,NO,ACTIVE,PUBLIC,PUBLIC,INSURANCE,RCVD,PRINTED,ENGLISH,,UNKNOWN,NO,NO,NO,N/A,OWNER,OWNER,,,,1997/04/17 00:00:00,2023/01/19 00:00:00,2023/05/19 00:00:00,2023/05/19 00:00:00,2024/02/29 00:00:00,2024/01/19 00:00:00,,1,TRUCKS,0,N/A,38.1914,-85.5798,,200,150,50,,,48
29107,56,640,SEPTIC TANK CLEANING VEHICLES,SEPTIC TANK CLEANING BUSINESS/VEHICLE,DRUIN SEPTIC TANK SERVICE,11620,LOWER RIVER RD,,LOUISVILLE,KY,40272,360,YES,NO,ACTIVE,PUBLIC,PUBLIC,INSURANCE,RCVD,PRINTED,ENGLISH,,UNKNOWN,NO,NO,NO,N/A,OWNER,OWNER,,,,2015/09/10 00:00:00,2023/01/17 00:00:00,2023/01/24 00:00:00,2023/01/24 00:00:00,2024/02/29 00:00:00,2024/02/25 00:00:00,,2,TRUCKS,0,N/A,38.868,-85.8988,,250,150,100,,,49
29109,56,640,SEPTIC TANK CLEANING VEHICLES,SEPTIC TANK CLEANING BUSINESS/VEHICLE,G D ESTES & CO,4913,HWY 31 E,,CLARKSVILLE,IN,47129,360,YES,NO,ACTIVE,PUBLIC,PUBLIC,INSURANCE,RCVD,PRINTED,ENGLISH,,UNKNOWN,NO,NO,NO,N/A,OWNER,OWNER,,,,1992/04/30 00:00:00,2023/01/17 00:00:00,2023/03/07 00:00:00,2023/03/07 00:00:00,2024/02/29 00:00:00,2024/02/23 00:00:00,,5,TRUCKS,0,N/A,37.3619,-89.8968,,400,150,250,,,50
31379,56,605,FOOD SERVICE ESTABLISHMENT,SCHOOL CAFETERIA OR FOOD SERVICE,WESTPORT MIDDLE SCHOOL,8100,WESTPORT RD,,LOUISVILLE,KY,40242,180,NO,NO,ACTIVE,PUBLIC,PUBLIC,NOT BONDED,SENT,N/A,ENGLISH,,UNKNOWN,NO,NO,NO,,OWNER,OWNER,,,,1988/07/14 00:00:00,2010/10/16 00:00:00,,,2024/12/31 00:00:00,2024/01/31 00:00:00,,51,SEATS,0,N/A,38.2756,-85.5998,,280,125,155,,,51
31380,56,605,FOOD SERVICE ESTABLISHMENT,SCHOOL CAFETERIA OR FOOD SERVICE,WESTERN HIGH SCHOOL,2501,ROCKFORD LN,,LOUISVILLE,KY,40216,180,NO,NO,ACTIVE,PUBLIC,PUBLIC,NOT BONDED,SENT,N/A,ENGLISH,,UNKNOWN,NO,NO,NO,,OWNER,OWNER,,,,1989/01/24 00:00:00,2010/10/16 00:00:00,,,2024/12/31 00:00:00,2024/03/04 00:00:00,,325,SEATS,0,N/A,38.1778,0,,340,125,215,,,52
31381,56,605,FOOD SERVICE ESTABLISHMENT,SCHOOL CAFETERIA OR FOOD SERVICE,WELLINGTON ELEMENTARY,4800,KAUFMAN LN,,LOUISVILLE,KY,40216,180,NO,NO,ACTIVE,PUBLIC,PUBLIC,NOT BONDED,SENT,N/A,ENGLISH,,UNKNOWN,NO,NO,NO,,OWNER,OWNER,,,,1989/01/24 00:00:00,2010/10/16 00:00:00,,,2024/12/31 00:00:00,2024/03/25 00:00:00,,51,SEATS,0,N/A,38.1825,-85.8618,,280,125,155,,,53
31383,56,605,FOOD SERVICE ESTABLISHMENT,SCHOOL CAFETERIA OR FOOD SERVICE,HUDSON MIDDLE SCHOOL,1107,S 17TH ST,,LOUISVILLE,KY,40210,180,NO,NO,ACTIVE,PUBLIC,PUBLIC,NOT BONDED,SENT,N/A,ENGLISH,,UNKNOWN,NO,NO,NO,,OWNER,OWNER,,,,1989/01/24 00:00:00,2010/10/16 00:00:00,,,2024/12/31 00:00:00,2024/02/25 00:00:00,,192,SEATS,0,N/A,38.2392,-85.7828,"8-29-23: Changed Est name from Wheatley Elementary School to Hudson Middle School per area inspector, Heba Hanbali.",310,125,185,,,54
31384,56,605,FOOD SERVICE ESTABLISHMENT,SCHOOL CAFETERIA OR FOOD SERVICE,WHEELER ELEMENTARY SCHOOL,5700,CYNTHIA DR,,LOUISVILLE,KY,40291,180,NO,NO,ACTIVE,PUBLIC,PUBLIC,NOT BONDED,SENT,N/A,ENGLISH,,UNKNOWN,NO,NO,NO,AREA 3,OWNER,OWNER,,,,1988/07/14 00:00:00,2010/10/16 00:00:00,,,2024/12/31 00:00:00,2024/04/21 00:00:00,,184,SEATS,0,N/A,38.1666,-85.5745,,310,125,185,,,55
31386,56,605,FOOD SERVICE ESTABLISHMENT,SCHOOL CAFETERIA OR FOOD SERVICE,WILDER ELEMENTARY SCHOOL,1913,HERR LN,,LOUISVILLE,KY,40222,180,NO,NO,ACTIVE,PUBLIC,PUBLIC,NOT BONDED,SENT,N/A,ENGLISH,,UNKNOWN,NO,NO,NO,AREA 2,OWNER,OWNER,,,,1989/02/27 00:00:00,2010/10/16 00:00:00,,,2024/12/31 00:00:00,2024/02/25 00:00:00,,51,SEATS,0,N/A,38.279,-85.6221,,280,125,155,,,56
31388,56,605,FOOD SERVICE ESTABLISHMENT,SCHOOL CAFETERIA OR FOOD SERVICE,WILT ELEMENTARY SCHOOL,6700,PRICE LANE RD,,LOUISVILLE,KY,40229,180,NO,NO,ACTIVE,PUBLIC,PUBLIC,NOT BONDED,SENT,N/A,ENGLISH,,UNKNOWN,NO,NO,NO,,OWNER,OWNER,,,,1989/01/24 00:00:00,2010/10/16 00:00:00,,,2024/12/31 00:00:00,2024/05/08 00:00:00,,136,SEATS,0,N/A,38.1024,-85.6382,,310,125,185,,,57
31389,56,605,FOOD SERVICE ESTABLISHMENT,SCHOOL CAFETERIA OR FOOD SERVICE,JEFFERSON CO. TRADITIONAL MIDDLE SCHOOL,1418,MORTON AVE,,LOUISVILLE,KY,40204,180,NO,NO,ACTIVE,PUBLIC,PUBLIC,NOT BONDED,SENT,N/A,ENGLISH,,UNKNOWN,NO,NO,NO,,OWNER,OWNER,,,,1988/07/14 00:00:00,2010/10/16 00:00:00,,,2024/12/31 00:00:00,2023/10/28 00:00:00,,51,SEATS,0,N/A,38.2401,-85.7273,,280,125,155,,,58
31390,56,605,FOOD SERVICE ESTABLISHMENT,SCHOOL CAFETERIA OR FOOD SERVICE,WESTERN MIDDLE SCHOOL,2201,W MAIN ST,,LOUISVILLE,KY,40212,180,NO,NO,ACTIVE,PUBLIC,PUBLIC,NOT BONDED,SENT,N/A,ENGLISH,,UNKNOWN,NO,NO,NO,AREA 5,OWNER,OWNER,,,,1989/03/29 00:00:00,2010/10/16 00:00:00,,,2024/12/31 00:00:00,2024/02/26 00:00:00,,1,SEATS,0,N/A,38.2611,-85.7872,,200,125,75,,,59
31391,56,605,FOOD SERVICE ESTABLISHMENT,SCHOOL CAFETERIA OR FOOD SERVICE,WALLER WILLIAMS ENVIRONMENTAL SCHOOL,2415,ROCKFORD LN,,LOUISVILLE,KY,40216,180,NO,NO,ACTIVE,PUBLIC,PRIVATE,NOT BONDED,SENT,N/A,ENGLISH,,UNKNOWN,NO,NO,NO,,OWNER,OWNER,,,,1998/10/21 00:00:00,2010/10/16 00:00:00,,,2024/12/31 00:00:00,2024/03/04 00:00:00,,51,SEATS,0,N/A,38.1777,-85.8426,,280,125,155,,,60
31392,56,605,FOOD SERVICE ESTABLISHMENT,SCHOOL CAFETERIA OR FOOD SERVICE,YOUNG ELEMENTARY #374,3526,W MUHAMMAD ALI BLVD,,LOUISVILLE,KY,40212,180,NO,NO,ACTIVE,PUBLIC,PUBLIC,NOT BONDED,SENT,N/A,ENGLISH,,UNKNOWN,NO,NO,NO,,OWNER,OWNER,,,,1988/07/14 00:00:00,2010/10/16 00:00:00,,,2024/12/31 00:00:00,2024/02/24 00:00:00,,51,SEATS,0,N/A,38.2562,-85.8105,3-4-22: One of 6 schools changed back to Area 5 per Kimber Knight.  August 2019: One of 6 schools changed from Area 5 to Area 4.,280,125,155,,,61
31396,56,605,FOOD SERVICE ESTABLISHMENT,SCHOOL CAFETERIA OR FOOD SERVICE,ST. XAVIER HIGH SCHOOL,1609,POPLAR LEVEL RD,,LOUISVILLE,KY,40217,180,NO,NO,ACTIVE,PUBLIC,PUBLIC,NOT BONDED,RCVD,PRINTED,ENGLISH,,UNKNOWN,NO,NO,NO,AREA 6,OWNER,OWNER,,,,1988/07/14 00:00:00,2014/10/13 00:00:00,2013/11/15 00:00:00,2013/11/15 00:00:00,2024/12/31 00:00:00,2024/04/02 00:00:00,,400,SEATS,0,N/A,38.2191,-85.7265,,340,125,215,,,62
31397,56,605,FOOD SERVICE ESTABLISHMENT,SCHOOL CAFETERIA OR FOOD SERVICE,BALLARD HIGH SCHOOL,6000,BROWNSBORO RD,,LOUISVILLE,KY,40222,180,NO,NO,ACTIVE,PUBLIC,PUBLIC,NOT BONDED,SENT,N/A,ENGLISH,,UNKNOWN,NO,NO,NO,AREA 2,OWNER,OWNER,,,,1988/07/14 00:00:00,2010/10/16 00:00:00,,,2024/12/31 00:00:00,2024/02/21 00:00:00,,51,SEATS,0,N/A,38.2837,-85.6249,,280,125,155,,,63
31398,56,605,FOOD SERVICE ESTABLISHMENT,SCHOOL CAFETERIA OR FOOD SERVICE,BARRETT MIDDLE SCHOOL,2561,GRINSTEAD DR,,LOUISVILLE,KY,40206,180,NO,NO,ACTIVE,PUBLIC,PUBLIC,NOT BONDED,SENT,N/A,ENGLISH,,UNKNOWN,NO,NO,NO,,OWNER,OWNER,,,,1989/02/28 00:00:00,2010/10/16 00:00:00,,,2024/12/31 00:00:00,2024/02/24 00:00:00,,51,SEATS,0,N/A,38.2495,-85.6958,,280,125,155,,,64
31399,56,605,FOOD SERVICE ESTABLISHMENT,SCHOOL CAFETERIA OR FOOD SERVICE,MINOR DANIELS ACADEMY,1960,BASHFORD MANOR LN,,LOUISVILLE,KY,40218,180,NO,NO,ACTIVE,PUBLIC,PUBLIC,NOT BONDED,SENT,N/A,ENGLISH,,UNKNOWN,NO,NO,NO,,OWNER,OWNER,,,,1988/07/14 00:00:00,2010/10/16 00:00:00,,,2024/12/31 00:00:00,2024/03/16 00:00:00,,51,SEATS,0,N/A,38.1978,-85.6731,,280,125,155,,,65
31400,56,605,FOOD SERVICE ESTABLISHMENT,SCHOOL CAFETERIA OR FOOD SERVICE,BATES ELEMENTARY SCHOOL,7601,BARDSTOWN RD,,LOUISVILLE,KY,40291,180,NO,NO,ACTIVE,PUBLIC,PUBLIC,NOT BONDED,SENT,N/A,ENGLISH,,UNKNOWN,NO,NO,NO,AREA 3,OWNER,OWNER,,,,1988/07/14 00:00:00,2010/10/16 00:00:00,,,2024/12/31 00:00:00,2024/04/13 00:00:00,,51,SEATS,0,N/A,38.1372,-85.5787,,280,125,155,,,66
31401,56,605,FOOD SERVICE ESTABLISHMENT,SCHOOL CAFETERIA OR FOOD SERVICE,BETH HAVEN,5515,JOHNSONTOWN RD,,LOUISVILLE,KY,40272,180,NO,NO,ACTIVE,PUBLIC,PUBLIC,NOT BONDED,SENT,N/A,ENGLISH,,UNKNOWN,NO,NO,NO,AREA 7,OWNER,OWNER,,,,2009/10/20 00:00:00,2010/10/16 00:00:00,,,2024/12/31 00:00:00,2024/03/04 00:00:00,,90,SEATS,0,N/A,38.1221,-85.8718,,280,125,155,,,67
31402,56,605,FOOD SERVICE ESTABLISHMENT,SCHOOL CAFETERIA OR FOOD SERVICE,BLAKE ELEMENTARY SCHOOL,3801,BONAVENTURE BLVD,,LOUISVILLE,KY,40219,180,NO,NO,ACTIVE,PUBLIC,PUBLIC,NOT BONDED,SENT,N/A,ENGLISH,,UNKNOWN,NO,NO,NO,AREA 8,OWNER,OWNER,,,,1988/07/14 00:00:00,2010/10/16 00:00:00,,,2024/12/31 00:00:00,2024/03/17 00:00:00,,132,SEATS,0,N/A,38.1234,-85.694,,310,125,185,,,68
31404,56,605,FOOD SERVICE ESTABLISHMENT,SCHOOL CAFETERIA OR FOOD SERVICE,IROQUOIS HIGH SCHOOL,4615,TAYLOR BLVD,,LOUISVILLE,KY,40215,180,NO,NO,ACTIVE,PUBLIC,PUBLIC,NOT BONDED,SENT,N/A,ENGLISH,,UNKNOWN,NO,NO,NO,N/A,OWNER,OWNER,,,,1988/07/14 00:00:00,2010/10/16 00:00:00,,,2024/12/31 00:00:00,2024/03/13 00:00:00,,51,SEATS,0,N/A,38.1745,-85.7817,,280,125,155,,,69
31407,56,605,FOOD SERVICE ESTABLISHMENT,FOOD SERVICE (HOSPITAL / NURSING HOME,WESLEY MANOR,5012,E MANSLICK RD,,LOUISVILLE,KY,40219,180,YES,NO,ACTIVE,PUBLIC,PUBLIC,NOT BONDED,RCVD,PRINTED,ENGLISH,,UNKNOWN,NO,NO,NO,,OWNER,OWNER,,,,1988/07/14 00:00:00,2023/10/13 00:00:00,2022/12/05 00:00:00,2022/12/05 00:00:00,2023/12/31 00:00:00,2024/02/27 00:00:00,,170,SEATS,0,N/A,38.1168,-85.6642,,310,125,185,,,70
31409,56,605,FOOD SERVICE ESTABLISHMENT,FOOD SERVICE (HOSPITAL / NURSING HOME,WESTMINSTER TERRACE,2116,BUECHEL BANK RD,,LOUISVILLE,KY,40218,180,YES,NO,ACTIVE,PUBLIC,PUBLIC,NOT BONDED,SENT,N/A,ENGLISH,,UNKNOWN,NO,NO,NO,AREA 6,OWNER,OWNER,,,,1988/07/14 00:00:00,2023/10/13 00:00:00,2023/11/14 00:00:00,2023/11/14 00:00:00,2024/12/31 00:00:00,2024/01/22 00:00:00,,252,SEATS,0,N/A,38.1892,-85.6469,,340,125,215,,2021-07-22 00:00:00,71
31410,56,605,FOOD SERVICE ESTABLISHMENT,FOOD SERVICE (HOSPITAL / NURSING HOME,NAZARETH HOME,2000,NEWBURG RD,,LOUISVILLE,KY,40205,180,YES,NO,ACTIVE,PUBLIC,PUBLIC,NOT BONDED,RCVD,PRINTED,ENGLISH,,UNKNOWN,NO,NO,NO,AREA 6,BILLING,OWNER,,,,1989/03/06 00:00:00,2023/10/13 00:00:00,2023/11/06 00:00:00,2023/11/06 00:00:00,2024/12/31 00:00:00,2024/04/16 00:00:00,,118,SEATS,0,N/A,38.2191,-85.7103,,310,125,185,,,72
31414,56,605,FOOD SERVICE ESTABLISHMENT,SCHOOL CAFETERIA OR FOOD SERVICE,BLUE LICK ELEMENTARY SCHOOL,9801,BLUE LICK RD,,LOUISVILLE,KY,40229,180,NO,NO,ACTIVE,PUBLIC,PUBLIC,NOT BONDED,SENT,N/A,ENGLISH,,UNKNOWN,NO,NO,NO,AREA 8,OWNER,OWNER,,,,1988/07/14 00:00:00,2010/10/16 00:00:00,,,2024/12/31 00:00:00,2024/03/12 00:00:00,,144,SEATS,0,N/A,38.119,-85.6888,,310,125,185,,,73
31415,56,605,FOOD SERVICE ESTABLISHMENT,SCHOOL CAFETERIA OR FOOD SERVICE,BOWEN ELEMENTARY SCHOOL,1601,ROOSEVELT LN,,LOUISVILLE,KY,40242,180,NO,NO,ACTIVE,PUBLIC,PUBLIC,NOT BONDED,SENT,N/A,ENGLISH,,UNKNOWN,NO,NO,NO,,OWNER,OWNER,,,,1988/07/14 00:00:00,2010/10/16 00:00:00,,,2024/12/31 00:00:00,2024/02/25 00:00:00,,112,SEATS,0,N/A,38.2699,-85.5816,,310,125,185,,,74
31417,56,605,FOOD SERVICE ESTABLISHMENT,SCHOOL CAFETERIA OR FOOD SERVICE,BRECKINRIDGE METROPOLITAN HIGH,1128,E BROADWAY,,LOUISVILLE,KY,40204,180,NO,NO,ACTIVE,PUBLIC,PUBLIC,NOT BONDED,SENT,N/A,ENGLISH,,UNKNOWN,NO,NO,NO,,OWNER,OWNER,,,,1988/07/14 00:00:00,2010/10/16 00:00:00,,,2024/12/31 00:00:00,2024/04/24 00:00:00,,51,SEATS,0,N/A,38.2437,-85.7325,,280,125,155,,,75
31418,56,605,FOOD SERVICE ESTABLISHMENT,SCHOOL CAFETERIA OR FOOD SERVICE,DUBOIS ACADEMY,3307,E INDIAN TRAIL,,LOUISVILLE,KY,40213,180,NO,NO,ACTIVE,PUBLIC,PUBLIC,NOT BONDED,SENT,N/A,ENGLISH,2,UNKNOWN,NO,NO,NO,,OWNER,OWNER,,,,1989/02/27 00:00:00,2010/10/16 00:00:00,,,2024/12/31 00:00:00,2024/04/13 00:00:00,,51,SEATS,0,N/A,38.1714,-85.7002,8-21-19 name change from Liberty High School to Dubois Academy.,280,125,155,,,76
31419,56,605,FOOD SERVICE ESTABLISHMENT,SCHOOL CAFETERIA OR FOOD SERVICE,BUTLER HIGH SCHOOL,2222,CRUMS LN,,LOUISVILLE,KY,40216,180,NO,NO,ACTIVE,PUBLIC,PUBLIC,NOT BONDED,SENT,N/A,ENGLISH,,UNKNOWN,NO,NO,NO,,OWNER,OWNER,,,,1988/07/14 00:00:00,2010/10/16 00:00:00,,,2024/12/31 00:00:00,2024/03/05 00:00:00,,51,SEATS,0,N/A,38.1931,-85.8153,,280,125,155,,,77
31421,56,605,FOOD SERVICE ESTABLISHMENT,SCHOOL CAFETERIA OR FOOD SERVICE,BYCK ELEMENTARY SCHOOL,2328,CEDAR ST,,LOUISVILLE,KY,40212,180,NO,NO,ACTIVE,PUBLIC,PUBLIC,NOT BONDED,SENT,N/A,ENGLISH,,UNKNOWN,NO,NO,NO,,OWNER,OWNER,,,,1988/07/14 00:00:00,2010/10/16 00:00:00,,,2024/12/31 00:00:00,2024/02/20 00:00:00,,51,SEATS,0,N/A,38.2557,-85.7903,3-4-22: One of 6 schools changed back to Area 5 per Kimber Knight.  August 2019: One of 6 schools changed from Area 5 to Area 4.,280,125,155,,,78
31422,56,605,FOOD SERVICE ESTABLISHMENT,SCHOOL CAFETERIA OR FOOD SERVICE,DEPAUL SCHOOL,1925,DUKER AVE,,LOUISVILLE,KY,40205,180,NO,NO,ACTIVE,PUBLIC,PUBLIC,NOT BONDED,SENT,N/A,ENGLISH,,UNKNOWN,NO,NO,NO,,OWNER,OWNER,,,,2009/10/20 00:00:00,2010/10/16 00:00:00,,,2024/12/31 00:00:00,2024/02/25 00:00:00,,51,SEATS,0,N/A,38.2295,-85.7055,,280,125,155,,,79
31424,56,605,FOOD SERVICE ESTABLISHMENT,SCHOOL CAFETERIA OR FOOD SERVICE,MEDORA ELEMENTARY SCHOOL,11801,DEERING RD,,LOUISVILLE,KY,40272,180,NO,NO,ACTIVE,PUBLIC,PUBLIC,NOT BONDED,SENT,N/A,ENGLISH,,UNKNOWN,NO,NO,NO,AREA 7,OWNER,OWNER,,,,1988/07/14 00:00:00,2010/10/16 00:00:00,,,2024/12/31 00:00:00,2024/02/24 00:00:00,,51,SEATS,0,N/A,38.902,-85.8749,,280,125,155,,,80
31428,56,605,FOOD SERVICE ESTABLISHMENT,SCHOOL CAFETERIA OR FOOD SERVICE,MEYZEEK SCHOOL,828,S JACKSON ST,,LOUISVILLE,KY,40203,180,NO,NO,ACTIVE,PUBLIC,PUBLIC,NOT BONDED,SENT,N/A,ENGLISH,,UNKNOWN,NO,NO,NO,,OWNER,OWNER,,,,1989/02/28 00:00:00,2010/10/16 00:00:00,,,2024/12/31 00:00:00,2024/04/20 00:00:00,,51,SEATS,0,N/A,38.2417,-85.7469,,280,125,155,,,81
31429,56,605,FOOD SERVICE ESTABLISHMENT,SCHOOL CAFETERIA OR FOOD SERVICE,MIDDLETOWN ELEMENTARY SCHOOL,218,N MADISON AVE,,LOUISVILLE,KY,40243,180,NO,NO,ACTIVE,PUBLIC,PUBLIC,NOT BONDED,SENT,N/A,ENGLISH,,UNKNOWN,NO,NO,NO,AREA 3,OWNER,OWNER,,,,1989/03/29 00:00:00,2010/10/16 00:00:00,,,2024/12/31 00:00:00,2024/02/20 00:00:00,,190,SEATS,0,N/A,38.2486,-85.5418,,310,125,185,,,82
31432,56,605,FOOD SERVICE ESTABLISHMENT,SCHOOL CAFETERIA OR FOOD SERVICE,MILLCREEK ELEMENTARY SCHOOL,3816,DIXIE HWY,,LOUISVILLE,KY,40216,180,NO,NO,ACTIVE,PUBLIC,PUBLIC,NOT BONDED,SENT,N/A,ENGLISH,,UNKNOWN,NO,NO,NO,,OWNER,OWNER,,,,1988/07/14 00:00:00,2010/10/16 00:00:00,,,2024/12/31 00:00:00,2024/03/05 00:00:00,,51,SEATS,0,N/A,38.1985,-85.8103,,280,125,155,,,83
31433,56,605,FOOD SERVICE ESTABLISHMENT,SCHOOL CAFETERIA OR FOOD SERVICE,MINORS LANE ELEMENTARY SCHOOL,8510,MINORS LN,,LOUISVILLE,KY,40219,180,NO,NO,ACTIVE,PUBLIC,PUBLIC,NOT BONDED,SENT,N/A,ENGLISH,,UNKNOWN,NO,NO,NO,AREA 8,OWNER,OWNER,,,,1988/07/14 00:00:00,2010/10/16 00:00:00,,,2024/12/31 00:00:00,2024/04/28 00:00:00,,51,SEATS,0,N/A,38.1253,-85.7144,,280,125,155,,,84
31435,56,605,FOOD SERVICE ESTABLISHMENT,SCHOOL CAFETERIA OR FOOD SERVICE,MOORE HIGH SCHOOL,6415,OUTER LOOP,,LOUISVILLE,KY,40228,180,NO,NO,ACTIVE,PUBLIC,PUBLIC,NOT BONDED,SENT,N/A,ENGLISH,,UNKNOWN,NO,NO,NO,,OWNER,OWNER,,,,1988/07/14 00:00:00,2010/10/16 00:00:00,,,2024/12/31 00:00:00,2024/04/07 00:00:00,,420,SEATS,0,N/A,38.1397,0,,340,125,215,,,85
31446,56,605,FOOD SERVICE ESTABLISHMENT,SCHOOL CAFETERIA OR FOOD SERVICE,NEWBURG MIDDLE SCHOOL,4901,EXETER AVE,,LOUISVILLE,KY,40218,180,NO,NO,ACTIVE,PUBLIC,PUBLIC,NOT BONDED,SENT,N/A,ENGLISH,,UNKNOWN,NO,NO,NO,,OWNER,OWNER,,,,1988/07/14 00:00:00,2010/10/16 00:00:00,,,2024/12/31 00:00:00,2024/03/17 00:00:00,,51,SEATS,0,N/A,38.1805,-85.6681,,280,125,155,,,86
31452,56,605,FOOD SERVICE ESTABLISHMENT,SCHOOL CAFETERIA OR FOOD SERVICE,NOE MIDDLE SCHOOL,121,W LEE ST,,LOUISVILLE,KY,40208,180,NO,NO,ACTIVE,PUBLIC,PUBLIC,NOT BONDED,SENT,N/A,ENGLISH,,UNKNOWN,NO,NO,NO,,OWNER,OWNER,,,,1988/07/14 00:00:00,2010/10/16 00:00:00,,,2024/12/31 00:00:00,2024/02/18 00:00:00,,51,SEATS,0,N/A,38.2251,-85.7574,,280,125,155,,,87
31455,56,605,FOOD SERVICE ESTABLISHMENT,SCHOOL CAFETERIA OR FOOD SERVICE,NORTON ELEMENTARY SCHOOL,8101,BROWNSBORO RD,,LOUISVILLE,KY,40241,180,NO,NO,ACTIVE,PUBLIC,PUBLIC,NOT BONDED,SENT,N/A,ENGLISH,,UNKNOWN,NO,NO,NO,AREA 2,OWNER,OWNER,,,,1989/03/06 00:00:00,2010/10/16 00:00:00,,,2024/12/31 00:00:00,2024/02/18 00:00:00,,160,SEATS,0,N/A,38.2977,-85.5998,,310,125,185,,,88
31456,56,605,FOOD SERVICE ESTABLISHMENT,SCHOOL CAFETERIA OR FOOD SERVICE,OKOLONA ELEMENTARY SCHOOL,7606,PRESTON HWY,,LOUISVILLE,KY,40219,180,NO,NO,ACTIVE,PUBLIC,PUBLIC,NOT BONDED,SENT,N/A,ENGLISH,,UNKNOWN,NO,NO,NO,AREA 8,OWNER,OWNER,,,,1988/07/14 00:00:00,2010/10/16 00:00:00,,,2024/12/31 00:00:00,2024/03/03 00:00:00,,51,SEATS,0,N/A,38.1408,-85.69,,280,125,155,,,89
31458,56,605,FOOD SERVICE ESTABLISHMENT,SCHOOL CAFETERIA OR FOOD SERVICE,OUR LADY OF LOURDES,510,BRECKENRIDGE LN,,LOUISVILLE,KY,40207,180,NO,NO,ACTIVE,PUBLIC,PUBLIC,NOT BONDED,SENT,N/A,ENGLISH,,UNKNOWN,NO,NO,NO,,OWNER,OWNER,,,,2009/10/20 00:00:00,2010/10/16 00:00:00,,,2024/12/31 00:00:00,2024/02/19 00:00:00,,51,SEATS,0,N/A,38.2443,-85.6493,,280,125,155,,,90
31460,56,605,FOOD SERVICE ESTABLISHMENT,SCHOOL CAFETERIA OR FOOD SERVICE,ST. NICHOLAS ACADEMY,5501,NEW CUT RD,,LOUISVILLE,KY,40214,180,NO,NO,ACTIVE,PUBLIC,PUBLIC,NOT BONDED,SENT,N/A,ENGLISH,,UNKNOWN,NO,NO,NO,,OWNER,OWNER,,,,2009/10/20 00:00:00,2010/10/16 00:00:00,,,2024/12/31 00:00:00,2024/04/21 00:00:00,,51,SEATS,0,N/A,38.1455,0,,280,125,155,,,91
31462,56,605,FOOD SERVICE ESTABLISHMENT,SCHOOL CAFETERIA OR FOOD SERVICE,MAUPIN ELEMENTARY SCHOOL,1312,CATALPA ST,,LOUISVILLE,KY,40211,180,NO,NO,ACTIVE,PUBLIC,PUBLIC,NOT BONDED,SENT,N/A,ENGLISH,,UNKNOWN,NO,NO,NO,,OWNER,OWNER,,,,1998/10/21 00:00:00,2010/10/16 00:00:00,,,2024/12/31 00:00:00,2024/03/16 00:00:00,,51,SEATS,0,N/A,38.2362,-85.8021,,280,125,155,,,92
31464,56,605,FOOD SERVICE ESTABLISHMENT,SCHOOL CAFETERIA OR FOOD SERVICE,JOHNSON TRADITIONAL MIDDLE SCHOOL,2509,WILSON AVE,,LOUISVILLE,KY,40210,180,NO,NO,ACTIVE,PUBLIC,PUBLIC,NOT BONDED,SENT,N/A,ENGLISH,,UNKNOWN,NO,NO,NO,,OWNER,OWNER,,,,1988/07/14 00:00:00,2010/10/16 00:00:00,,,2024/12/31 00:00:00,2024/03/09 00:00:00,,51,SEATS,0,N/A,38.2356,0,,280,125,155,,,93
31466,56,605,FOOD SERVICE ESTABLISHMENT,SCHOOL CAFETERIA OR FOOD SERVICE,PLEASURE RIDGE PARK MAGNET SCHOOL,5901,GREENWOOD RD,,LOUISVILLE,KY,40258,180,NO,NO,ACTIVE,PUBLIC,PUBLIC,NOT BONDED,SENT,N/A,ENGLISH,,UNKNOWN,NO,NO,NO,,OWNER,OWNER,,,,1988/07/14 00:00:00,2010/10/16 00:00:00,,,2024/12/31 00:00:00,2024/03/12 00:00:00,,51,SEATS,0,N/A,38.1459,-85.8637,,280,125,155,,,94
31474,56,605,FOOD SERVICE ESTABLISHMENT,SCHOOL CAFETERIA OR FOOD SERVICE,PORTLAND ELEMENTARY SCHOOL,3410,NORTHWESTERN PKWY,,LOUISVILLE,KY,40212,180,NO,NO,ACTIVE,PUBLIC,PUBLIC,NOT BONDED,SENT,N/A,ENGLISH,,UNKNOWN,NO,NO,NO,N/A,OWNER,OWNER,,,,1989/03/28 00:00:00,2010/10/16 00:00:00,,,2024/12/31 00:00:00,2024/02/18 00:00:00,,51,SEATS,0,N/A,38.2744,-85.8033,,280,125,155,,,95
31475,56,605,FOOD SERVICE ESTABLISHMENT,SCHOOL CAFETERIA OR FOOD SERVICE,PRICE ELEMENTARY SCHOOL,5001,GARDEN GREEN WAY,,LOUISVILLE,KY,40218,180,NO,NO,ACTIVE,PUBLIC,PUBLIC,NOT BONDED,SENT,N/A,ENGLISH,,UNKNOWN,NO,NO,NO,,OWNER,OWNER,,,,1988/07/14 00:00:00,2010/10/16 00:00:00,,,2024/12/31 00:00:00,2024/03/17 00:00:00,,51,SEATS,0,N/A,38.1768,-85.6662,,280,125,155,,,96
31477,56,605,FOOD SERVICE ESTABLISHMENT,SCHOOL CAFETERIA OR FOOD SERVICE,RANGELAND ELEMENTARY,1701,RANGELAND RD,,LOUISVILLE,KY,40219,180,NO,NO,ACTIVE,PUBLIC,PUBLIC,NOT BONDED,SENT,N/A,ENGLISH,,UNKNOWN,NO,NO,NO,,OWNER,OWNER,,,,1989/01/24 00:00:00,2010/10/16 00:00:00,,,2024/12/31 00:00:00,2024/03/13 00:00:00,,150,SEATS,0,N/A,38.1658,-85.6693,,310,125,185,,,97
31480,56,605,FOOD SERVICE ESTABLISHMENT,SCHOOL CAFETERIA OR FOOD SERVICE,RUTHERFORD ELEMENTARY SCHOOL,301,SOUTHLAND BLVD,,LOUISVILLE,KY,40214,180,NO,NO,ACTIVE,PUBLIC,PUBLIC,NOT BONDED,SENT,N/A,ENGLISH,,UNKNOWN,NO,NO,NO,N/A,OWNER,OWNER,,,,1989/01/24 00:00:00,2010/10/16 00:00:00,,,2024/12/31 00:00:00,2024/02/25 00:00:00,,51,SEATS,0,N/A,38.1726,-85.7682,,280,125,155,,,98
31482,56,605,FOOD SERVICE ESTABLISHMENT,SCHOOL CAFETERIA OR FOOD SERVICE,EASTERN HIGH SCHOOL,12400,OLD SHELBYVILLE RD,,LOUISVILLE,KY,40243,180,NO,NO,ACTIVE,PUBLIC,PUBLIC,NOT BONDED,SENT,N/A,ENGLISH,,UNKNOWN,NO,NO,NO,,OWNER,OWNER,,,,1988/07/14 00:00:00,2010/10/16 00:00:00,,,2024/12/31 00:00:00,2024/03/13 00:00:00,,425,SEATS,0,N/A,38.2434,-85.5261,,340,125,215,,,99
31492,56,605,FOOD SERVICE ESTABLISHMENT,SCHOOL CAFETERIA OR FOOD SERVICE,EISENHOWER ELEMENTARY SCHOOL,5300,JESSAMINE DR,,LOUISVILLE,KY,40258,180,NO,NO,ACTIVE,PUBLIC,PUBLIC,NOT BONDED,SENT,N/A,ENGLISH,,UNKNOWN,NO,NO,NO,AREA 7,OWNER,OWNER,,,,1995/10/26 00:00:00,2010/10/16 00:00:00,,,2024/12/31 00:00:00,2024/03/04 00:00:00,,51,SEATS,0,N/A,38.1376,-85.855,,280,125,155,,,100
29350,56,695,SWIMMING AREA,SWIMMING / DIVING POOL,ELKS CLUB,2824,KLONDIKE LN.,,LOUISVILLE,KY,40218,180,YES,NO,ACTIVE,PUBLIC,PUBLIC,NOT BONDED,SENT,N/A,ENGLISH,,UNKNOWN,NO,NO,NO,AREA 1,OWNER,OWNER,,,,1988/06/07 00:00:00,2023/03/01 00:00:00,2023/04/24 00:00:00,2023/04/24 00:00:00,2024/04/30 00:00:00,2024/02/01 00:00:00,,200000,GALLONS,5313,FEET,38.20103,-85.64105,,600,100,500,,,101
29358,56,695,SWIMMING AREA,SWIMMING POOL,CROWNE PLAZA,830,PHILLIPS LN,,LOUISVILLE,KY,40209,180,YES,NO,ACTIVE,PUBLIC,PUBLIC,NOT BONDED,SENT,N/A,ENGLISH,,UNKNOWN,NO,NO,NO,AREA 1,OWNER,OWNER,,,,1988/06/07 00:00:00,2023/03/01 00:00:00,2023/06/20 00:00:00,2023/06/20 00:00:00,2024/04/30 00:00:00,2024/03/18 00:00:00,,79586,GALLONS,2435,FEET,38.21918,-85.75438,,300,100,200,,2023-09-25 00:00:00,102
29360,56,695,SWIMMING AREA,SWIMMING POOL,METRO PARKS FAIRDALE POOL,709,FAIRDALE ROAD,,LOUISVILLE,KY,40118,180,YES,NO,ACTIVE,PUBLIC,PUBLIC,NOT BONDED,SENT,N/A,ENGLISH,,UNKNOWN,NO,NO,NO,N/A,OWNER,OWNER,,,,1988/06/07 00:00:00,2023/03/01 00:00:00,2023/08/21 00:00:00,2023/08/21 00:00:00,2024/04/30 00:00:00,2024/01/30 00:00:00,,210000,GALLONS,6373,FEET,38.10802,-85.75522,,700,100,600,,,103
29369,56,695,SWIMMING AREA,SWIMMING POOL,STANDARD COUNTRY CLUB,8208,STANDARD CLUB LANE,,LOUISVILLE,KY,40241,180,YES,NO,ACTIVE,PUBLIC,PUBLIC,NOT BONDED,SENT,N/A,ENGLISH,,UNKNOWN,NO,NO,NO,AREA 1,OWNER,OWNER,,,,1988/08/03 00:00:00,2023/03/01 00:00:00,2023/05/04 00:00:00,2023/05/04 00:00:00,2024/04/30 00:00:00,2024/02/04 00:00:00,,216000,GALLONS,4825,FEET,38.29332,-85.59772,,550,100,450,,,104
29370,56,695,SWIMMING AREA,WADING POOL,STANDARD COUNTRY CLUB,8208,STANDARD CLUB LANE,,LOUISVILLE,KY,40241,180,YES,NO,ACTIVE,PUBLIC,PUBLIC,NOT BONDED,SENT,N/A,ENGLISH,,UNKNOWN,NO,NO,NO,N/A,OWNER,OWNER,,,,1988/06/07 00:00:00,2023/03/01 00:00:00,2023/05/04 00:00:00,2023/05/04 00:00:00,2024/04/30 00:00:00,2024/02/04 00:00:00,,3342,GALLONS,357,FEET,38.29332,-85.59772,,190,100,90,,,105
29372,56,695,SWIMMING AREA,SWIMMING POOL,STONEHENGE CONDOS,245,STONEHENGE DR,,LOUISVILLE,KY,40207,180,YES,NO,ACTIVE,PUBLIC,PUBLIC,NOT BONDED,SENT,N/A,ENGLISH,,UNKNOWN,NO,NO,NO,AREA 3,OWNER,OWNER,,,,1988/06/07 00:00:00,2023/03/01 00:00:00,2023/05/04 00:00:00,2023/05/04 00:00:00,2024/04/30 00:00:00,2024/02/18 00:00:00,,53700,GALLONS,1250,FEET,38.2531,-85.62613,,250,100,150,,,106
29373,56,695,SWIMMING AREA,SWIMMING POOL,METRO PARKS SUN VALLEY,6506,BETHANY LN,,LOUISVILLE,KY,40272,180,YES,NO,ACTIVE,PUBLIC,PUBLIC,NOT BONDED,SENT,N/A,ENGLISH,,UNKNOWN,NO,NO,NO,AREA 1,OWNER,OWNER,,,,1988/06/07 00:00:00,2023/03/01 00:00:00,2023/08/21 00:00:00,2023/08/21 00:00:00,2024/04/30 00:00:00,2024/01/30 00:00:00,,100000,GALLONS,4620,FEET,38.1031,-85.88623,,550,100,450,,,107
29376,56,695,SWIMMING AREA,SWIMMING POOL,SYCAMORE CONDOS,217,SYCAMORE DR,,LOUISVILLE,KY,40223,180,YES,NO,ACTIVE,PUBLIC,PUBLIC,NOT BONDED,SENT,N/A,ENGLISH,,UNKNOWN,NO,NO,NO,AREA 1,OWNER,OWNER,,,,1988/06/07 00:00:00,2023/03/01 00:00:00,2023/04/12 00:00:00,2023/04/12 00:00:00,2024/04/30 00:00:00,2024/01/10 00:00:00,,37443,GALLONS,1049,FEET,38.24773,-85.5616,,250,100,150,,,108
29379,56,695,SWIMMING AREA,SWIMMING POOL,FOUR SEASONS APT,8010,SUMMERFIELD CIR,,LOUISVILLE,KY,40220,180,YES,NO,ACTIVE,PUBLIC,PUBLIC,NOT BONDED,SENT,N/A,ENGLISH,,UNKNOWN,NO,NO,NO,N/A,OWNER,OWNER,,,,1988/06/07 00:00:00,2023/03/01 00:00:00,2023/04/13 00:00:00,2023/04/13 00:00:00,2024/04/30 00:00:00,2024/01/30 00:00:00,,52200,GALLONS,1591,FEET,38.2011,-85.61308,,300,100,200,,,109
29387,56,695,SWIMMING AREA,SWIMMING POOL,GALT HOUSE,140,N. 4TH ST.,,LOUISVILLE,KY,40202,180,YES,NO,ACTIVE,PUBLIC,PUBLIC,NOT BONDED,RCVD,PRINTED,ENGLISH,,UNKNOWN,NO,NO,NO,AREA 1,OWNER,OWNER,,,,1988/06/07 00:00:00,2023/03/01 00:00:00,2023/06/20 00:00:00,2023/06/20 00:00:00,2024/04/30 00:00:00,2024/02/04 00:00:00,,35544,GALLONS,1176,FEET,38.25763,-85.75632,,250,100,150,,,110
29389,56,695,SWIMMING AREA,SWIMMING POOL,GARDEN COURT CONDOMINIUM,2505,BROWNSBORO RD.,,LOUISVILLE,KY,40206,180,YES,NO,ACTIVE,PUBLIC,PUBLIC,NOT BONDED,RCVD,PRINTED,ENGLISH,,UNKNOWN,NO,NO,NO,AREA 2,OWNER,OWNER,,,,1997/05/09 00:00:00,2023/03/01 00:00:00,2023/04/25 00:00:00,2023/04/25 00:00:00,2024/04/30 00:00:00,2024/01/14 00:00:00,,11250,GALLONS,408,FEET,38.25932,-85.69947,,190,100,90,,,111
29390,56,695,SWIMMING AREA,SWIMMING POOL,GASLITE SQUARE CONDOS,4851,SHERBURN LN.,,LOUISVILLE,KY,40207,180,YES,NO,ACTIVE,PUBLIC,PUBLIC,NOT BONDED,N/A,N/A,ENGLISH,,UNKNOWN,NO,NO,NO,N/A,OWNER,OWNER,,,,1988/06/07 00:00:00,2023/03/01 00:00:00,2023/04/24 00:00:00,2023/04/24 00:00:00,2024/04/30 00:00:00,2024/02/05 00:00:00,,52904,GALLONS,1288,FEET,38.23932,-85.62608,,250,100,150,,,112
29391,56,695,SWIMMING AREA,SWIMMING POOL,THE WILLOWS OF PLAINVIEW,9800,WILLOW BROOK CIRCLE,,LOUISVILLE,KY,40223,180,YES,NO,ACTIVE,PUBLIC,PUBLIC,NOT BONDED,SENT,N/A,ENGLISH,,UNKNOWN,NO,NO,NO,N/A,OWNER,OWNER,,,,1988/06/07 00:00:00,2023/03/01 00:00:00,2023/04/24 00:00:00,2023/04/24 00:00:00,2024/04/30 00:00:00,2024/01/20 00:00:00,,49459,GALLONS,1382,FEET,38.23662,-85.57378,,250,100,150,,2023-05-26 00:00:00,113
29405,56,695,SWIMMING AREA,SWIMMING POOL,GLENVIEW,5100,U S HWY 42,,LOUISVILLE,KY,40241,180,YES,NO,ACTIVE,PUBLIC,PUBLIC,NOT BONDED,SENT,N/A,ENGLISH,,UNKNOWN,NO,NO,NO,AREA 3,OWNER,OWNER,,,,1988/06/07 00:00:00,2023/03/01 00:00:00,2023/04/13 00:00:00,2023/04/13 00:00:00,2024/04/30 00:00:00,2024/02/12 00:00:00,,60000,GALLONS,1598,FEET,38.28197,-85.63367,,300,100,200,,2023-05-23 00:00:00,114
29410,56,695,SWIMMING AREA,SWIMMING POOL,UPPER HIGHLANDS,2411,PARK DALE AVE,,LOUISVILLE,KY,40220,180,YES,NO,ACTIVE,PUBLIC,PUBLIC,NOT BONDED,SENT,N/A,ENGLISH,,UNKNOWN,NO,NO,NO,AREA 5,OWNER,OWNER,,,,1988/06/07 00:00:00,2023/03/01 00:00:00,2023/04/11 00:00:00,2023/04/11 00:00:00,2024/04/30 00:00:00,2024/02/04 00:00:00,,172732,GALLONS,2250,FEET,38.23578,-85.62127,,300,100,200,,2022-06-10 00:00:00,115
29411,56,695,SWIMMING AREA,WADING POOL,UPPER HIGHLANDS,2411,PARK DALE AVE,,LOUISVILLE,KY,40220,180,YES,NO,ACTIVE,PUBLIC,PUBLIC,NOT BONDED,SENT,N/A,ENGLISH,,UNKNOWN,NO,NO,NO,N/A,OWNER,OWNER,,,,1988/06/07 00:00:00,2023/03/01 00:00:00,2023/04/11 00:00:00,2023/04/11 00:00:00,2024/04/30 00:00:00,2024/02/04 00:00:00,,2400,GALLONS,320,FEET,38.23578,-85.62127,,190,100,90,,2022-06-10 00:00:00,116
29422,56,695,SWIMMING AREA,SWIMMING POOL,COUNTRY BROOK ESTATES,1718,BRIDGEVIEW LN,,LOUISVILLE,KY,40242,180,YES,NO,ACTIVE,PUBLIC,PUBLIC,NOT BONDED,RCVD,PRINTED,ENGLISH,,UNKNOWN,NO,NO,NO,AREA 1,OWNER,OWNER,,,,1995/08/28 00:00:00,2023/03/01 00:00:00,2023/04/20 00:00:00,2023/04/20 00:00:00,2024/04/30 00:00:00,2024/02/10 00:00:00,,81567,GALLONS,1585,FEET,38.27038,-85.6092,Paid for pool season 2020 - 2021 but did not open because of covid.  changed the date on the permit to current swim year and wrote off the invoice.,300,100,200,,,117
29432,56,695,SWIMMING AREA,SWIMMING / DIVING POOL,HAPPY ACRES SWIM CLUB,8408,HUDSON LN,,LOUISVILLE,KY,40291,180,YES,NO,ACTIVE,PUBLIC,PUBLIC,NOT BONDED,SENT,N/A,ENGLISH,,UNKNOWN,NO,NO,NO,AREA 1,BILLING,OWNER,,,,1988/06/07 00:00:00,2023/03/01 00:00:00,2023/04/20 00:00:00,2023/04/20 00:00:00,2024/04/30 00:00:00,2024/01/14 00:00:00,,125000,GALLONS,3000,FEET,38.16642,-85.59745,,400,100,300,,,118
29433,56,695,SWIMMING AREA,SWIMMING / DIVING POOL,WILDWOOD COUNTRY CLUB,5000,BARDSTOWN RD,,LOUISVILLE,KY,40291,180,YES,NO,ACTIVE,PUBLIC,PUBLIC,N/A,SENT,N/A,ENGLISH,,UNKNOWN,NO,NO,NO,AREA 1,OWNER,OWNER,,,,1988/06/07 00:00:00,2023/03/01 00:00:00,2023/05/11 00:00:00,2023/05/11 00:00:00,2024/04/30 00:00:00,2024/01/14 00:00:00,,201069,GALLONS,3800,FEET,38.17575,-85.61763,,450,100,350,,,119
29435,56,695,SWIMMING AREA,WADING POOL,WILDWOOD COUNTRY CLUB,5000,BARDSTOWN RD,,LOUISVILLE,KY,40291,180,YES,NO,ACTIVE,PUBLIC,PUBLIC,NOT BONDED,SENT,N/A,ENGLISH,,UNKNOWN,NO,NO,NO,N/A,OWNER,OWNER,,,,1988/06/07 00:00:00,2023/03/01 00:00:00,2023/05/11 00:00:00,2023/05/11 00:00:00,2024/04/30 00:00:00,2024/01/14 00:00:00,,25871,GALLONS,600,FEET,38.17575,-85.61763,,190,100,90,,,120
29440,56,695,SWIMMING AREA,SWIMMING POOL,1400 WILLOW CONDOMIUMS,1400,WILLOW AVE,,LOUISVILLE,KY,40204,180,YES,NO,ACTIVE,PUBLIC,PUBLIC,NOT BONDED,SENT,N/A,ENGLISH,,UNKNOWN,NO,NO,NO,AREA 2,OWNER,OWNER,,,,1988/06/07 00:00:00,2023/03/01 00:00:00,2023/04/04 00:00:00,2023/04/04 00:00:00,2024/04/30 00:00:00,2024/02/11 00:00:00,,27357,GALLONS,1256,FEET,38.23567,-85.70895,,250,100,150,,,121
29447,56,695,SWIMMING AREA,SWIMMING POOL,WOODCREEK CONDOS,3501,ILLINOIS AVE,,LOUISVILLE,KY,40213,180,YES,NO,ACTIVE,PUBLIC,PUBLIC,NOT BONDED,SENT,N/A,ENGLISH,,UNKNOWN,NO,NO,NO,AREA 2,OWNER,OWNER,,,,1988/06/07 00:00:00,2023/03/01 00:00:00,2023/04/11 00:00:00,2023/04/11 00:00:00,2024/04/30 00:00:00,2024/02/13 00:00:00,,23884,GALLONS,853,FEET,38.21297,-85.71172,4-1-21: pool did not open during swim year 2020 - 2021 due to covid  they paid for their permit.  we used their payment for 2021 to 2022 pool year. changed the date on the permit and wrote the invoice off for 2021 - 2022. lls,190,100,90,,,122
29448,56,695,SWIMMING AREA,SWIMMING POOL,HIGHWOOD CONDOMINIUMS,900,HIGHWOOD DR.,,LOUISVILLE,KY,40206,180,YES,NO,ACTIVE,PUBLIC,PUBLIC,NOT BONDED,SENT,N/A,ENGLISH,,UNKNOWN,NO,NO,NO,AREA 2,OWNER,OWNER,,,,1988/06/07 00:00:00,2023/03/01 00:00:00,2023/04/07 00:00:00,2023/04/07 00:00:00,2024/04/30 00:00:00,2024/02/06 00:00:00,,23938,GALLONS,800,FEET,38.26835,-85.70168,,190,100,90,,,123
29450,56,695,SWIMMING AREA,SWIMMING POOL,WOODHAVEN COUNTRY CLUB,7200,WOODHAVEN ROAD,,LOUISVILLE,KY,40291,180,YES,NO,ACTIVE,PUBLIC,PUBLIC,NOT BONDED,SENT,N/A,ENGLISH,,UNKNOWN,NO,NO,NO,AREA 3,OWNER,OWNER,,,,1988/06/07 00:00:00,2023/03/01 00:00:00,2023/04/20 00:00:00,2023/04/20 00:00:00,2024/04/30 00:00:00,2024/01/29 00:00:00,,220000,GALLONS,16000,FEET,38.17278,-85.62768,,1700,100,1600,,,124
29452,56,695,SWIMMING AREA,DIVING POOL,WOODHAVEN COUNTRY CLUB,7200,WOODHAVEN ROAD,,LOUISVILLE,KY,40291,180,YES,NO,ACTIVE,PUBLIC,PUBLIC,NOT BONDED,SENT,N/A,ENGLISH,,UNKNOWN,NO,NO,NO,AREA 1,OWNER,OWNER,,,,1988/06/07 00:00:00,2023/03/01 00:00:00,2023/04/20 00:00:00,2023/04/20 00:00:00,2024/04/30 00:00:00,2024/01/29 00:00:00,,167000,GALLONS,3800,FEET,38.17278,-85.62768,,450,100,350,,,125
29463,56,695,SWIMMING AREA,SWIMMING POOL,YMCA,555,S 2ND ST,,LOUISVILLE,KY,40202,180,YES,NO,ACTIVE,PUBLIC,PUBLIC,NOT BONDED,SENT,N/A,ENGLISH,,UNKNOWN,NO,NO,NO,N/A,OWNER,OWNER,,,,1988/06/07 00:00:00,2023/03/01 00:00:00,2023/04/07 00:00:00,2023/04/07 00:00:00,2024/04/30 00:00:00,2024/03/12 00:00:00,,90000,GALLONS,1875,FEET,38.2489,-85.7541,,300,100,200,,,126
29467,56,695,SWIMMING AREA,SWIMMING POOL,YMCA SOUTHWEST,2800,FORDHAVEN RD,,LOUISVILLE,KY,40214,180,YES,NO,ACTIVE,PUBLIC,PUBLIC,NOT BONDED,SENT,N/A,ENGLISH,,UNKNOWN,NO,NO,NO,AREA 1,OWNER,OWNER,,,,1988/06/07 00:00:00,2023/03/01 00:00:00,2023/04/11 00:00:00,2023/04/11 00:00:00,2024/04/30 00:00:00,2023/10/23 00:00:00,,138000,GALLONS,3034,FEET,38.18005,-85.8182,,400,100,300,,,127
29469,56,695,SWIMMING AREA,SWIMMING POOL,YMCA SOUTHEAST,5930,SIX MILE LANE,,LOUISVILLE,KY,40218,180,YES,NO,ACTIVE,PUBLIC,PUBLIC,NOT BONDED,SENT,N/A,ENGLISH,,UNKNOWN,NO,NO,NO,AREA 1,OWNER,OWNER,,,,1988/06/07 00:00:00,2023/03/01 00:00:00,2023/04/24 00:00:00,2023/04/24 00:00:00,2024/04/30 00:00:00,2024/03/26 00:00:00,,130000,GALLONS,3135,FEET,38.196,-85.6492,,400,100,300,,,128
29476,56,695,SWIMMING AREA,SWIMMING POOL,HOLLY HOUSE CONDOMINIUMS,1924,GOLDSMITH LN.,,LOUISVILLE,KY,40218,180,YES,NO,ACTIVE,PUBLIC,PUBLIC,NOT BONDED,RCVD,PRINTED,ENGLISH,,UNKNOWN,NO,NO,NO,AREA 2,OWNER,OWNER,,,,1988/06/07 00:00:00,2023/03/01 00:00:00,2023/04/11 00:00:00,2023/04/11 00:00:00,2024/04/30 00:00:00,2024/01/17 00:00:00,,24000,GALLONS,800,FEET,38.20867,-85.68227,,190,100,90,,,129
29482,56,695,SWIMMING AREA,WADING POOL,HUNTING CREEK COUNTRY CLUB,6807,FOXCROFT DR,,PROSPECT,KY,40059,180,YES,NO,ACTIVE,PUBLIC,PUBLIC,NOT BONDED,SENT,N/A,ENGLISH,,UNKNOWN,NO,NO,NO,N/A,OWNER,OWNER,,,,1988/08/03 00:00:00,2023/03/29 00:00:00,2023/04/25 00:00:00,2023/04/25 00:00:00,2024/04/30 00:00:00,2024/02/08 00:00:00,,3372,GALLONS,439,FEET,38.3445,-85.6063,,265,100,165,,,130
29485,56,695,SWIMMING AREA,SWIMMING POOL,HURSTBOURNE GRAND APTS,8916,MARKSFIELD RD.,,LOUISVILLE,KY,40222,180,YES,NO,ACTIVE,PUBLIC,PUBLIC,NOT BONDED,SENT,N/A,ENGLISH,,UNKNOWN,NO,NO,NO,AREA 1,OWNER,OWNER,,,,1988/08/02 00:00:00,2023/03/01 00:00:00,2023/08/22 00:00:00,2023/08/22 00:00:00,2024/04/30 00:00:00,2024/01/20 00:00:00,,60495,GALLONS,1584,FEET,38.24512,-85.58453,,300,100,200,,,131
29486,56,695,SWIMMING AREA,SWIMMING POOL,WESSEX PLACE,9542,WESSEX PLACE,,LOUISVILLE,KY,40222,180,YES,NO,ACTIVE,PUBLIC,PUBLIC,NOT BONDED,SENT,N/A,ENGLISH,,UNKNOWN,NO,NO,NO,N/A,OWNER,OWNER,,,,1995/08/04 00:00:00,2023/03/01 00:00:00,2023/04/20 00:00:00,2023/04/20 00:00:00,2024/04/30 00:00:00,2023/12/25 00:00:00,,65488,GALLONS,1584,FEET,38.23817,-85.57792,,300,100,200,,,132
29493,56,695,SWIMMING AREA,SWIMMING POOL,INVERNESS AT HURSTBOURNE,1200,CLUB HOUSE DRIVE,,LOUISVILLE,KY,40222,180,YES,NO,ACTIVE,PUBLIC,PUBLIC,NOT BONDED,N/A,N/A,ENGLISH,,UNKNOWN,NO,NO,NO,AREA 2,OWNER,OWNER,,,,1988/08/02 00:00:00,2023/03/01 00:00:00,2023/05/11 00:00:00,2023/05/11 00:00:00,2024/04/30 00:00:00,2024/02/25 00:00:00,,36000,GALLONS,1200,FEET,38.22828,-85.58003,,250,100,150,,,133
29494,56,695,SWIMMING AREA,SWIMMING POOL,INDIGO AT THE PARK,518,IROQUOIS GARDENS DRIVE,,LOUISVILLE,KY,40214,180,YES,NO,ACTIVE,PUBLIC,PUBLIC,NOT BONDED,SENT,N/A,ENGLISH,,UNKNOWN,NO,NO,NO,AREA 1,OWNER,OWNER,,,,1997/05/09 00:00:00,2023/03/01 00:00:00,2023/05/18 00:00:00,2023/05/18 00:00:00,2024/04/30 00:00:00,2024/01/21 00:00:00,,37000,GALLONS,1250,FEET,38.15402,-85.81895,,250,100,150,,,134
29504,56,695,SWIMMING AREA,SWIMMING POOL,JEWISH COMMUNITY CENTER,3600,DUTCHMANS LN,,LOUISVILLE,KY,40205,180,YES,NO,ACTIVE,PUBLIC,PUBLIC,NOT BONDED,SENT,N/A,ENGLISH,,UNKNOWN,NO,NO,NO,AREA 1,BILLING,OWNER,,,,1988/06/07 00:00:00,2023/03/01 00:00:00,2023/04/28 00:00:00,2023/04/28 00:00:00,2024/04/30 00:00:00,2024/01/28 00:00:00,,140229,GALLONS,4484,FEET,38.22513,-85.6488,update accurate sq ft,500,100,400,,,135
29521,56,695,SWIMMING AREA,SWIMMING POOL,LA FONTENAY APARTMENTS,175,LA FONTENAY DR,,LOUISVILLE,KY,40223,180,YES,NO,ACTIVE,PUBLIC,PUBLIC,NOT BONDED,SENT,N/A,ENGLISH,,UNKNOWN,NO,NO,NO,AREA 1,OWNER,OWNER,,,,1988/06/07 00:00:00,2023/03/01 00:00:00,2023/05/04 00:00:00,2023/05/04 00:00:00,2024/04/30 00:00:00,2023/04/18 00:00:00,,31875,GALLONS,1000,FEET,38.247,-85.5581,,190,100,90,,,136
29524,56,695,SWIMMING AREA,SWIMMING POOL,LA FONTENAY APARTMENTS,175,LA FONTENAY DR,,LOUISVILLE,KY,40223,180,YES,NO,ACTIVE,PUBLIC,PUBLIC,NOT BONDED,SENT,N/A,ENGLISH,,UNKNOWN,NO,NO,NO,N/A,OWNER,OWNER,,,,1988/06/07 00:00:00,2023/03/01 00:00:00,2023/05/04 00:00:00,2023/05/04 00:00:00,2024/04/30 00:00:00,2024/02/14 00:00:00,,59475,GALLONS,1560,FEET,38.24683,-85.55828,,300,100,200,,,137
29687,56,695,SWIMMING AREA,SWIMMING POOL,FOREST PARK CONDOMINIUMS,1600,FOREST PARK RD,,LOUISVILLE,KY,40223,180,YES,NO,ACTIVE,PUBLIC,PUBLIC,NOT BONDED,RCVD,PRINTED,ENGLISH,,UNKNOWN,NO,NO,NO,,OWNER,OWNER,,,,1988/06/22 00:00:00,2023/03/01 00:00:00,2023/04/25 00:00:00,2023/04/25 00:00:00,2024/04/30 00:00:00,2024/01/27 00:00:00,,46693,GALLONS,930,FEET,38.24863,-85.56183,,190,100,90,,,138
29688,56,695,SWIMMING AREA,SWIMMING / DIVING POOL,OWL CREEK SUBDIVISION,10607,HOBBS STATION ROAD,,LOUISVILLE,KY,40223,180,YES,NO,ACTIVE,PUBLIC,PUBLIC,NOT BONDED,SENT,N/A,ENGLISH,,UNKNOWN,NO,NO,NO,AREA 1,OWNER,OWNER,,,,1988/06/22 00:00:00,2023/03/01 00:00:00,2023/04/18 00:00:00,2023/04/18 00:00:00,2024/04/30 00:00:00,2024/01/20 00:00:00,,196905,GALLONS,3838,FEET,38.25872,-85.5559,,450,100,350,,,139
29689,56,695,SWIMMING AREA,WADING POOL,OWL CREEK SUBDIVISION,10607,HOBBS STATION ROAD,,LOUISVILLE,KY,40223,180,YES,NO,ACTIVE,PUBLIC,PUBLIC,NOT BONDED,SENT,N/A,ENGLISH,,UNKNOWN,NO,NO,NO,N/A,OWNER,OWNER,,,,1988/06/22 00:00:00,2023/03/01 00:00:00,2023/04/18 00:00:00,2023/04/18 00:00:00,2024/04/30 00:00:00,2024/01/20 00:00:00,,2086,GALLONS,314,FEET,38.27223,-85.5559,,190,100,90,,,140
29693,56,695,SWIMMING AREA,SWIMMING POOL,THE FORUM AT BROOKSIDE,200,BROOKSIDE DR,,DOUGLASS HILLS,KY,40243,180,YES,NO,ACTIVE,PUBLIC,PUBLIC,NOT BONDED,SENT,N/A,ENGLISH,,UNKNOWN,NO,NO,NO,AREA 1,OWNER,OWNER,,,,1988/06/22 00:00:00,2023/03/01 00:00:00,2023/04/18 00:00:00,2023/04/18 00:00:00,2024/04/30 00:00:00,2023/10/23 00:00:00,,24000,GALLONS,800,FEET,38.24833,-85.553,,190,100,90,,,141
29699,56,695,SWIMMING AREA,SWIMMING POOL,STONEMILL VILLAGE / INDOOR POOL,850,WASHBURN AVE,,LOUISVILLE,KY,40222,180,YES,NO,ACTIVE,PUBLIC,PUBLIC,NOT BONDED,SENT,N/A,ENGLISH,,UNKNOWN,NO,NO,NO,AREA 2,OWNER,OWNER,,,,1988/06/22 00:00:00,2023/03/01 00:00:00,2023/08/28 00:00:00,2023/08/28 00:00:00,2024/04/30 00:00:00,2024/02/27 00:00:00,,14175,GALLONS,420,FEET,38.26342,-85.62077,,190,100,90,,,142
29715,56,695,SWIMMING AREA,SWIMMING POOL,STONEMILL VILLAGE / OUTDOOR POOL,850,WASHBURN AVE,,LOUISVILLE,KY,40222,180,YES,NO,ACTIVE,PUBLIC,PUBLIC,NOT BONDED,SENT,N/A,ENGLISH,,UNKNOWN,NO,NO,NO,AREA 2,OWNER,OWNER,,,,1988/06/23 00:00:00,2023/03/01 00:00:00,2023/08/28 00:00:00,2023/08/28 00:00:00,2024/04/30 00:00:00,2023/12/27 00:00:00,,23625,GALLONS,700,FEET,38.26342,-85.62077,,190,100,90,,,143
29716,56,695,SWIMMING AREA,SWIMMING POOL,SPINDLEWICK CONDO,810,WASHBURN AVE,,LOUISVILLE,KY,40206,180,YES,NO,ACTIVE,PUBLIC,PUBLIC,NOT BONDED,SENT,N/A,ENGLISH,,UNKNOWN,NO,NO,NO,AREA 2,BILLING,PREMISE,,,,1988/06/23 00:00:00,2023/03/01 00:00:00,2023/04/12 00:00:00,2023/04/12 00:00:00,2024/04/30 00:00:00,2024/02/28 00:00:00,,27448,GALLONS,880,FEET,38.26233,-85.61913,,265,100,165,,,144
29720,56,650,YOUTH CAMPS,RESIDENTIAL,CEDAR RIDGE CAMP & RETREAT CNT,4010,ROUTT RD,,LOUISVILLE,KY,40299,180,YES,NO,ACTIVE,PUBLIC,PRIVATE,NOT BONDED,RCVD,PRINTED,ENGLISH,,UNKNOWN,NO,NO,NO,N/A,OWNER,OWNER,,,,1988/06/23 00:00:00,2023/10/13 00:00:00,2023/11/17 00:00:00,2023/11/17 00:00:00,2024/12/31 00:00:00,2024/01/29 00:00:00,,1,BEDS,1,BEDS,38.1761,-85.4791,,75,0,75,,,145
29724,56,695,SWIMMING AREA,SWIMMING POOL,STATION HOUSE SQUARE APTS,1509,S 6TH STREET,,LOUISVILLE,KY,40208,180,YES,NO,ACTIVE,PUBLIC,PUBLIC,NOT BONDED,SENT,N/A,ENGLISH,,UNKNOWN,NO,NO,NO,AREA 2,OWNER,OWNER,,,,1988/06/23 00:00:00,2023/03/01 00:00:00,2023/04/03 00:00:00,2023/04/03 00:00:00,2024/04/30 00:00:00,2024/01/17 00:00:00,,18500,GALLONS,583,FEET,38.22595,-85.7653,,190,100,90,,,146
29738,56,695,SWIMMING AREA,SWIMMING POOL,THE HARBOR CONDOMINIUM,6413,MARINA DR,,LOUISVILLE,KY,40059,180,YES,NO,ACTIVE,PUBLIC,PUBLIC,NOT BONDED,SENT,N/A,ENGLISH,,UNKNOWN,NO,NO,NO,AREA 2,OWNER,OWNER,,,,1990/09/17 00:00:00,2023/03/01 00:00:00,2023/04/12 00:00:00,2023/04/12 00:00:00,2024/04/30 00:00:00,2024/02/18 00:00:00,,37500,GALLONS,1250,FEET,38.33127,-85.62762,,250,100,150,,,147
29742,56,695,SWIMMING AREA,SWIMMING POOL,AMERICAN TURNERS OF LOUISVILLE,3125,RIVER RD,,LOUISVILLE,KY,40207,180,YES,NO,ACTIVE,PUBLIC,PRIVATE,NOT BONDED,SENT,N/A,ENGLISH,,UNKNOWN,NO,NO,NO,AREA 1,OWNER,OWNER,,,,1988/06/23 00:00:00,2023/03/01 00:00:00,2023/04/20 00:00:00,2023/04/20 00:00:00,2024/04/30 00:00:00,2024/02/01 00:00:00,,240000,GALLONS,5124,FEET,38.28107,-85.69687,,600,100,500,,,148
29747,56,695,SWIMMING AREA,SWIMMING POOL,CRESCENT SPRINGS CONDOMINIUM,408,LEDGEVIEW PARK DRIVE,,LOUISVILLE,KY,40206,180,YES,NO,ACTIVE,PUBLIC,PUBLIC,NOT BONDED,RCVD,PRINTED,ENGLISH,,UNKNOWN,NO,NO,NO,AREA 2,OWNER,OWNER,,,,1990/08/22 00:00:00,2023/03/01 00:00:00,2023/04/12 00:00:00,2023/04/12 00:00:00,2024/04/30 00:00:00,2024/01/31 00:00:00,,0,GALLONS,1204,FEET,38.24943,-85.70163,,250,100,150,,,149
29748,56,695,SWIMMING AREA,SWIMMING POOL,WISTERIA LANDING CONDOMINIUMS,6301,WISTERIA VIEW LN,,LOUISVILLE,KY,40218,180,YES,NO,ACTIVE,PUBLIC,PUBLIC,NOT BONDED,SENT,N/A,ENGLISH,,UNKNOWN,NO,NO,NO,AREA 2,BILLING,OWNER,,,,1989/06/20 00:00:00,2023/03/01 00:00:00,2023/04/27 00:00:00,2023/04/27 00:00:00,2024/04/30 00:00:00,2024/01/23 00:00:00,,46000,GALLONS,1020,FEET,38.19666,-85.63572,,250,100,150,,,150
32360,56,607,RETAIL/FOOD ESTABLISHMENT,"RETAIL-FOOD  10,000 SQ FT OR LESS",CIRCLE K #4700111,9200,DIXIE HWY,,LOUISVILLE,KY,40272,180,YES,NO,ACTIVE,PUBLIC,PUBLIC,NOT BONDED,RCVD,PRINTED,ENGLISH,,UNKNOWN,NO,NO,NO,AREA 7,OWNER,OWNER,,,,1991/01/31 00:00:00,2023/10/13 00:00:00,2023/11/14 00:00:00,2023/11/14 00:00:00,2024/12/31 00:00:00,2024/03/24 00:00:00,,1,SEATS,2000,SQ FEET,38.121,-85.8565,,355,280,75,,,151
32368,56,610,RETAIL FOOD STORES,RETAIL WITH LIMITED SERVICE,WILDERNESS RD NUTRITION PROGRAM,8111,BLUE LICK RD,,LOUISVILLE,KY,40219,360,NO,NO,ACTIVE,PUBLIC,PUBLIC,NOT BONDED,SENT,N/A,ENGLISH,,UNKNOWN,NO,NO,NO,AREA 8,BILLING,OWNER,,,,2009/10/20 00:00:00,2010/10/16 00:00:00,,,2024/12/31 00:00:00,2024/08/22 00:00:00,,0,N/A,1000,SQ FEET,38.1322,-85.6865,,90,90,0,,,152
32376,56,610,RETAIL FOOD STORES,PRE-PACKAGED RETAIL,LIQUOR DEPOT,4048,DIXIE HWY,,LOUISVILLE,KY,40216,360,YES,NO,ACTIVE,PUBLIC,PUBLIC,NOT BONDED,RCVD,PRINTED,ENGLISH,,UNKNOWN,NO,NO,NO,,OWNER,OWNER,,,,1988/07/27 00:00:00,2023/10/13 00:00:00,2023/11/09 00:00:00,2023/11/09 00:00:00,2024/12/31 00:00:00,2024/07/11 00:00:00,,0,N/A,10000,SQ FEET,38.1898,-85.8103,,155,155,0,,,153
32382,56,607,RETAIL/FOOD ESTABLISHMENT,"RETAIL-FOOD  10,000 SQ FT OR LESS",SPEEDWAY #9686,6821,SOUTHSIDE DR,,LOUISVILLE,KY,40214,180,YES,NO,ACTIVE,PUBLIC,PUBLIC,NOT BONDED,RCVD,PRINTED,ENGLISH,,UNKNOWN,NO,NO,NO,N/A,BILLING,BILLING,,,,2005/12/15 00:00:00,2023/10/13 00:00:00,2022/12/07 00:00:00,2022/12/07 00:00:00,2023/12/31 00:00:00,2024/04/30 00:00:00,,1,SEATS,3900,SQ FEET,38.1588,-85.7643,,355,280,75,,,154
32384,56,605,FOOD SERVICE ESTABLISHMENT,FOOD SERVICE (DAY CARE / CHILD CARE CENTER,STRATHMOOR EDUCATION CENTER,2201,HAWTHORNE AVE,,LOUISVILLE,KY,40205,180,YES,NO,ACTIVE,PUBLIC,PUBLIC,NOT BONDED,RCVD,PRINTED,ENGLISH,,UNKNOWN,NO,NO,NO,,OWNER,OWNER,,,,1988/07/27 00:00:00,2023/10/13 00:00:00,2022/12/14 00:00:00,2022/12/14 00:00:00,2023/12/31 00:00:00,2024/02/05 00:00:00,,1,SEATS,0,N/A,38.2175,-85.6761,,200,125,75,,,155
32531,56,605,FOOD SERVICE ESTABLISHMENT,FOOD SERVICE,BOYS & GIRLS HAVEN #1,2301,GOLDSMITH LN,,LOUISVILLE,KY,40218,180,NO,NO,ACTIVE,PUBLIC,PUBLIC,NOT BONDED,SENT,N/A,ENGLISH,,UNKNOWN,NO,NO,NO,,BILLING,OWNER,,,,1988/07/28 00:00:00,2010/10/16 00:00:00,,,2024/12/31 00:00:00,2024/03/31 00:00:00,,24,SEATS,0,N/A,38.2116,-85.6675,,200,125,75,,,156
32534,56,605,FOOD SERVICE ESTABLISHMENT,FOOD SERVICE,KRAZY DAVES NEIGHBORHOOD PUB & GRILL,2817,DEL RIO PL STE 110,,LOUISVILLE,KY,40220,180,YES,NO,ACTIVE,PUBLIC,PUBLIC,NOT BONDED,RCVD,PRINTED,ENGLISH,,UNKNOWN,NO,NO,NO,,BILLING,OWNER,,,,2006/02/22 00:00:00,2023/10/13 00:00:00,2023/02/22 00:00:00,2023/02/22 00:00:00,2023/12/31 00:00:00,2024/05/12 00:00:00,,150,SEATS,0,N/A,38.2146,-85.6544,,310,125,185,,,157
32535,56,605,FOOD SERVICE ESTABLISHMENT,FOOD SERVICE,DES PRES PARK CONCESSION,4709,LOWE RD,,LOUISVILLE,KY,40220,180,YES,NO,ACTIVE,PUBLIC,PUBLIC,NOT BONDED,RCVD,PRINTED,ENGLISH,,UNKNOWN,NO,NO,NO,,OWNER,OWNER,10-4,Saturday,April-September,1988/07/28 00:00:00,2023/10/13 00:00:00,2022/11/01 00:00:00,2022/11/01 00:00:00,2023/12/31 00:00:00,2024/03/17 00:00:00,,1,SEATS,0,N/A,38.2233,-85.6038,,200,125,75,,,158
32536,56,605,FOOD SERVICE ESTABLISHMENT,FOOD SERVICE,BOURBON STREET CAFE,850,DIXIE HWY,,LOUISVILLE,KY,40210,180,YES,NO,ACTIVE,PUBLIC,PUBLIC,NOT BONDED,RCVD,PRINTED,ENGLISH,,UNKNOWN,NO,NO,NO,N/A,BILLING,OWNER,,,,1988/07/28 00:00:00,2023/10/13 00:00:00,2022/11/22 00:00:00,2022/11/22 00:00:00,2023/12/31 00:00:00,2024/02/03 00:00:00,,80,SEATS,0,N/A,38.2448,-85.7848,12-20-20: Reactivated per David Reed.  No change in ownership. Brown-Forman has taken back the management of the food service from Eurest Dining Services.  10-12-20: Closed per Matt Corsica w/Eurest Dining Services. They no longer manage the food service.,280,125,155,,,159
32553,56,605,FOOD SERVICE ESTABLISHMENT,FOOD SERVICE,CAPTAIN D'S #3329,3937,DIXIE HWY,,LOUISVILLE,KY,40217,180,YES,NO,ACTIVE,PUBLIC,PUBLIC,NOT BONDED,RCVD,PRINTED,ENGLISH,,UNKNOWN,NO,YES,NO,,BILLING,BILLING,,,,1988/07/28 00:00:00,2023/10/13 00:00:00,2023/11/15 00:00:00,2023/11/15 00:00:00,2024/12/31 00:00:00,2023/11/05 00:00:00,,80,SEATS,0,N/A,38.1936,-85.8067,,435,125,310,,,160
32578,56,605,FOOD SERVICE ESTABLISHMENT,FOOD SERVICE,WHITE CASTLE #19,7400,DIXIE HWY,,LOUISVILLE,KY,40258,180,YES,NO,ACTIVE,PUBLIC,PUBLIC,NOT BONDED,RCVD,PRINTED,ENGLISH,,UNKNOWN,NO,YES,NO,AREA 7,BILLING,OWNER,,,,1988/07/28 00:00:00,2023/10/13 00:00:00,2023/11/14 00:00:00,2023/11/14 00:00:00,2024/12/31 00:00:00,2024/01/29 00:00:00,,49,SEATS,0,N/A,38.1432,-85.84,,405,125,280,,,161
32579,56,605,FOOD SERVICE ESTABLISHMENT,FOOD SERVICE,BONNIE & CLYDE'S PIZZA,7611,DIXIE HWY,,LOUISVILLE,KY,40258,180,YES,NO,ACTIVE,PUBLIC,PUBLIC,NOT BONDED,RCVD,PRINTED,ENGLISH,,UNKNOWN,NO,NO,NO,AREA 7,OWNER,OWNER,,,,1988/07/28 00:00:00,2023/10/13 00:00:00,2023/11/09 00:00:00,2023/11/09 00:00:00,2024/12/31 00:00:00,2023/12/20 00:00:00,,98,SEATS,0,N/A,38.1402,-85.8407,,280,125,155,,,162
32604,56,605,FOOD SERVICE ESTABLISHMENT,FOOD SERVICE,MOBY DICK,9150,DIXIE HWY,,LOUISVILLE,KY,40272,180,YES,NO,ACTIVE,PUBLIC,PUBLIC,NOT BONDED,RCVD,PRINTED,ENGLISH,,UNKNOWN,NO,YES,NO,,OWNER,OWNER,,,,1988/07/28 00:00:00,2023/10/13 00:00:00,2022/11/17 00:00:00,2022/11/17 00:00:00,2023/12/31 00:00:00,2024/03/23 00:00:00,,50,SEATS,0,N/A,38.1215,-85.856,,405,125,280,,,163
32609,56,605,FOOD SERVICE ESTABLISHMENT,FOOD SERVICE,CAPTAIN D'S #3532,10101,DIXIE HWY,,LOUISVILLE,KY,40272,180,YES,NO,ACTIVE,PUBLIC,PUBLIC,NOT BONDED,RCVD,PRINTED,ENGLISH,,UNKNOWN,NO,YES,NO,AREA 7,BILLING,BILLING,,,,1988/07/28 00:00:00,2023/10/13 00:00:00,2023/11/15 00:00:00,2023/11/15 00:00:00,2024/12/31 00:00:00,2024/05/04 00:00:00,,76,SEATS,0,N/A,38.1088,-85.8654,11-26-17:  Facility closed and undergoing renovation after fire.,435,125,310,,,164
32613,56,605,FOOD SERVICE ESTABLISHMENT,FOOD SERVICE,DIXIE BOWL,10526,DIXIE HWY,,LOUISVILLE,KY,40272,180,YES,NO,ACTIVE,PUBLIC,PUBLIC,NOT BONDED,RCVD,PRINTED,ENGLISH,,UNKNOWN,NO,NO,NO,AREA 7,OWNER,OWNER,,,,1988/07/28 00:00:00,2023/10/13 00:00:00,2023/11/06 00:00:00,2023/11/06 00:00:00,2024/12/31 00:00:00,2024/04/16 00:00:00,,68,SEATS,0,N/A,38.1024,-85.8712,,280,125,155,,,165
32659,56,605,FOOD SERVICE ESTABLISHMENT,FOOD SERVICE,BIG SPRING MAIN KITCHEN,5901,DUTCHMANS LN,,LOUISVILLE,KY,40205,180,YES,NO,ACTIVE,PUBLIC,PUBLIC,NOT BONDED,RCVD,PRINTED,ENGLISH,,UNKNOWN,YES,NO,NO,N/A,OWNER,OWNER,,,,1989/02/28 00:00:00,2023/10/13 00:00:00,2023/11/15 00:00:00,2023/11/15 00:00:00,2024/12/31 00:00:00,2024/02/07 00:00:00,,130,SEATS,0,N/A,38.2322,-85.6482,,445,125,320,,,166
32692,56,605,FOOD SERVICE ESTABLISHMENT,SCHOOL CAFETERIA OR FOOD SERVICE,ST. MATHEWS ELEMENTARY SCHOOL,601,BROWNS LN,,LOUISVILLE,KY,40207,180,NO,NO,ACTIVE,PUBLIC,PUBLIC,NOT BONDED,SENT,N/A,ENGLISH,,UNKNOWN,NO,NO,NO,,OWNER,OWNER,,,,2009/10/20 00:00:00,2010/10/16 00:00:00,,,2024/12/31 00:00:00,2024/02/20 00:00:00,,150,SEATS,0,N/A,38.2456,-85.6407,,310,125,185,,,167
32694,56,605,FOOD SERVICE ESTABLISHMENT,SCHOOL CAFETERIA OR FOOD SERVICE,ST. PAUL ELEMENTARY CATHOLIC SCHOOL,6901,DIXIE HWY,,LOUISVILLE,KY,40258,180,NO,NO,ACTIVE,PUBLIC,PUBLIC,NOT BONDED,SENT,N/A,ENGLISH,,UNKNOWN,NO,NO,NO,AREA 7,OWNER,OWNER,,,,2009/10/20 00:00:00,2010/10/16 00:00:00,,,2024/12/31 00:00:00,2024/03/03 00:00:00,,51,SEATS,0,N/A,38.1501,-85.8365,,280,125,155,,,168
32695,56,605,FOOD SERVICE ESTABLISHMENT,SCHOOL CAFETERIA OR FOOD SERVICE,JOHN PAUL II,3521,GOLDSMITH LN,,LOUISVILLE,KY,40220,180,NO,NO,ACTIVE,PUBLIC,PUBLIC,NOT BONDED,SENT,N/A,ENGLISH,,UNKNOWN,NO,NO,NO,,OWNER,OWNER,,,,2009/10/20 00:00:00,2010/10/16 00:00:00,,,2024/12/31 00:00:00,2024/03/03 00:00:00,,51,SEATS,0,N/A,38.2094,-85.6522,,280,125,155,,,169
32696,56,605,FOOD SERVICE ESTABLISHMENT,SCHOOL CAFETERIA OR FOOD SERVICE,ST. ANDREW CATHOLIC ACADEMY,7724,COLUMBINE DR,,LOUISVILLE,KY,40258,180,NO,NO,ACTIVE,PUBLIC,PUBLIC,NOT BONDED,SENT,N/A,ENGLISH,,UNKNOWN,NO,NO,NO,AREA 7,OWNER,OWNER,,,,2009/10/20 00:00:00,2010/10/16 00:00:00,,,2024/12/31 00:00:00,2024/03/10 00:00:00,,51,SEATS,0,N/A,38.1417,-85.8653,,280,125,155,,,170
32697,56,605,FOOD SERVICE ESTABLISHMENT,SCHOOL CAFETERIA OR FOOD SERVICE,ST. RAPHAEL SCHOOL,2131,LANCASHIRE AVE,,LOUISVILLE,KY,40205,180,NO,NO,ACTIVE,PUBLIC,PUBLIC,NOT BONDED,SENT,N/A,ENGLISH,,UNKNOWN,NO,NO,NO,,OWNER,OWNER,,,,2009/10/20 00:00:00,2010/10/16 00:00:00,,,2024/12/31 00:00:00,2024/03/05 00:00:00,,51,SEATS,0,N/A,38.2156,-85.6771,,280,125,155,,,171
32698,56,605,FOOD SERVICE ESTABLISHMENT,SCHOOL CAFETERIA OR FOOD SERVICE,ST. RITA SCHOOL,8709,PRESTON HWY,,LOUISVILLE,KY,40219,180,NO,NO,ACTIVE,PUBLIC,PUBLIC,NOT BONDED,SENT,N/A,ENGLISH,,UNKNOWN,NO,NO,NO,AREA 8,OWNER,OWNER,,,,2009/10/20 00:00:00,2010/10/16 00:00:00,,,2024/12/31 00:00:00,2024/02/28 00:00:00,,51,SEATS,0,N/A,38.1269,0,,280,125,155,,,172
32700,56,605,FOOD SERVICE ESTABLISHMENT,SCHOOL CAFETERIA OR FOOD SERVICE,ST. STEPHAN MARTYR SCHOOL,2931,PINDELL AVE,,LOUISVILLE,KY,40217,180,NO,NO,ACTIVE,PUBLIC,PUBLIC,NOT BONDED,SENT,N/A,ENGLISH,,UNKNOWN,NO,NO,NO,AREA 6,OWNER,OWNER,,,,2009/10/20 00:00:00,2010/10/16 00:00:00,,,2024/12/31 00:00:00,2024/04/07 00:00:00,,51,SEATS,0,N/A,38.2088,0,,280,125,155,,,173
32703,56,605,FOOD SERVICE ESTABLISHMENT,SCHOOL CAFETERIA OR FOOD SERVICE,SANDERS ELEMENTARY SCHOOL,8408,TERRY RD,,LOUISVILLE,KY,40258,180,NO,NO,ACTIVE,PUBLIC,PUBLIC,NOT BONDED,SENT,N/A,ENGLISH,,UNKNOWN,NO,NO,NO,AREA 7,OWNER,OWNER,,,,1988/07/29 00:00:00,2010/10/16 00:00:00,,,2024/12/31 00:00:00,2024/02/20 00:00:00,,51,SEATS,0,N/A,38.1323,-85.876,,280,125,155,,,174
32704,56,605,FOOD SERVICE ESTABLISHMENT,SCHOOL CAFETERIA OR FOOD SERVICE,SHACKLETTE ELEMENTARY SCHOOL,5310,MERCURY DR,,LOUISVILLE,KY,40258,180,NO,NO,ACTIVE,PUBLIC,PUBLIC,NOT BONDED,SENT,N/A,ENGLISH,,UNKNOWN,NO,NO,NO,,OWNER,OWNER,,,,1989/03/08 00:00:00,2010/10/16 00:00:00,,,2024/12/31 00:00:00,2024/03/26 00:00:00,,51,SEATS,0,N/A,38.1592,-85.8549,,280,125,155,,,175
32707,56,605,FOOD SERVICE ESTABLISHMENT,SCHOOL CAFETERIA OR FOOD SERVICE,SEMPLE ELEMENTARY SCHOOL,724,DENMARK ST,,LOUISVILLE,KY,40215,180,NO,NO,ACTIVE,PUBLIC,PUBLIC,NOT BONDED,SENT,N/A,ENGLISH,,UNKNOWN,NO,NO,NO,,OWNER,OWNER,,,,1988/07/29 00:00:00,2010/10/16 00:00:00,,,2024/12/31 00:00:00,2024/02/21 00:00:00,,51,SEATS,0,N/A,38.1955,-85.772,,280,125,155,,,176
32708,56,605,FOOD SERVICE ESTABLISHMENT,SCHOOL CAFETERIA OR FOOD SERVICE,SENECA HIGH SCHOOL,3510,GOLDSMITH LN,,LOUISVILLE,KY,40220,180,NO,NO,ACTIVE,PUBLIC,PUBLIC,NOT BONDED,SENT,N/A,ENGLISH,,UNKNOWN,NO,NO,NO,,OWNER,OWNER,,,,1989/03/06 00:00:00,2010/10/16 00:00:00,,,2024/12/31 00:00:00,2024/02/26 00:00:00,,51,SEATS,0,N/A,38.2085,-85.6544,,280,125,155,,,177
32710,56,605,FOOD SERVICE ESTABLISHMENT,SCHOOL CAFETERIA OR FOOD SERVICE,SHAWNEE HIGH SCHOOL,4018,W MARKET ST,,LOUISVILLE,KY,40212,180,NO,NO,ACTIVE,PUBLIC,PUBLIC,NOT BONDED,SENT,N/A,ENGLISH,,UNKNOWN,NO,NO,NO,,OWNER,OWNER,,,,1988/07/29 00:00:00,2010/10/16 00:00:00,,,2024/12/31 00:00:00,2024/02/25 00:00:00,,225,SEATS,0,N/A,38.2622,-85.8153,3-4-22: One of 6 schools changed back to Area 5 per Kimber Knight.  August 2019: One of 6 schools changed from Area 5 to Area 4.,340,125,215,,,178
32712,56,605,FOOD SERVICE ESTABLISHMENT,SCHOOL CAFETERIA OR FOOD SERVICE,MANUAL HIGH SCHOOL,120,W LEE ST,,LOUISVILLE,KY,40208,180,NO,NO,ACTIVE,PUBLIC,PUBLIC,NOT BONDED,SENT,N/A,ENGLISH,,UNKNOWN,NO,NO,NO,,OWNER,OWNER,,,,1988/07/29 00:00:00,2010/10/16 00:00:00,,,2024/12/31 00:00:00,2024/02/19 00:00:00,,51,SEATS,0,N/A,38.2222,-85.7588,,280,125,155,,,179
32714,56,605,FOOD SERVICE ESTABLISHMENT,SCHOOL CAFETERIA OR FOOD SERVICE,DESALES HIGH SCHOOL,425,W KENWOOD DR,,LOUISVILLE,KY,40214,180,NO,NO,ACTIVE,PUBLIC,PUBLIC,NOT BONDED,SENT,N/A,ENGLISH,,UNKNOWN,NO,NO,NO,N/A,OWNER,OWNER,,,,2009/10/20 00:00:00,2010/10/16 00:00:00,,,2024/12/31 00:00:00,2024/02/26 00:00:00,,51,SEATS,0,N/A,38.1623,-85.7743,,280,125,155,,,180
32717,56,605,FOOD SERVICE ESTABLISHMENT,SCHOOL CAFETERIA OR FOOD SERVICE,DIXIE ELEMENTARY SCHOOL,10201,CASALANDA DR,,LOUISVILLE,KY,40272,180,NO,NO,ACTIVE,PUBLIC,PUBLIC,NOT BONDED,SENT,N/A,ENGLISH,,UNKNOWN,NO,NO,NO,AREA 7,OWNER,OWNER,,,,1989/01/24 00:00:00,2010/10/16 00:00:00,,,2024/12/31 00:00:00,2024/03/03 00:00:00,,205,SEATS,0,N/A,38.1081,-85.8721,,340,125,215,,,181
32718,56,605,FOOD SERVICE ESTABLISHMENT,SCHOOL CAFETERIA OR FOOD SERVICE,DOSS HIGH SCHOOL,7601,ST ANDREWS CHURCH RD,,LOUISVILLE,KY,40214,180,NO,NO,ACTIVE,PUBLIC,PUBLIC,NOT BONDED,SENT,N/A,ENGLISH,,UNKNOWN,NO,NO,NO,AREA 7,OWNER,OWNER,,,,1988/07/29 00:00:00,2010/10/16 00:00:00,,,2024/12/31 00:00:00,2024/02/27 00:00:00,,450,SEATS,0,N/A,38.1531,-85.8133,,340,125,215,,,182
32720,56,605,FOOD SERVICE ESTABLISHMENT,SCHOOL CAFETERIA OR FOOD SERVICE,DUNN ELEMENTARY SCHOOL,2010,RUDY LN,,LOUISVILLE,KY,40207,180,NO,NO,ACTIVE,PUBLIC,PUBLIC,NOT BONDED,SENT,N/A,ENGLISH,,UNKNOWN,NO,NO,NO,,OWNER,OWNER,,,,1989/01/24 00:00:00,2010/10/16 00:00:00,,,2024/12/31 00:00:00,2023/10/08 00:00:00,,120,SEATS,0,N/A,38.284,-85.6439,,310,125,185,,,183
32722,56,605,FOOD SERVICE ESTABLISHMENT,SCHOOL CAFETERIA OR FOOD SERVICE,CARTER DUVALLE SCHOOL,3600,BOHNE AVE,,LOUISVILLE,KY,40211,180,NO,NO,ACTIVE,PUBLIC,PUBLIC,NOT BONDED,SENT,N/A,ENGLISH,,UNKNOWN,NO,NO,NO,,OWNER,OWNER,,,,1989/02/27 00:00:00,2010/10/16 00:00:00,,,2024/12/31 00:00:00,2024/03/23 00:00:00,,51,SEATS,0,N/A,38.2281,-85.8148,,280,125,155,,,184
32723,56,605,FOOD SERVICE ESTABLISHMENT,SCHOOL CAFETERIA OR FOOD SERVICE,LIBERTY HIGH SCHOOL,1281,GILMORE LN,,LOUISVILLE,KY,40213,180,NO,NO,ACTIVE,PUBLIC,PUBLIC,NOT BONDED,SENT,N/A,ENGLISH,2,UNKNOWN,NO,NO,NO,,OWNER,OWNER,,,,1988/07/29 00:00:00,2010/10/16 00:00:00,,,2024/12/31 00:00:00,2024/04/10 00:00:00,,186,SEATS,0,N/A,38.1798,-85.7059,"8-21-19 name change form Gilmore Lane Elementary School to Liberty High School per Gretchen Boyd, JCPS.",310,125,185,,,185
32724,56,605,FOOD SERVICE ESTABLISHMENT,FOOD SERVICE,MOOSE LODGE #5,4615,FEGENBUSH LN,,LOUISVILLE,KY,40228,180,YES,NO,ACTIVE,PUBLIC,PUBLIC,NOT BONDED,RCVD,PRINTED,ENGLISH,,UNKNOWN,NO,NO,NO,AREA 6,BILLING,OWNER,,,,1988/07/29 00:00:00,2023/10/13 00:00:00,2023/11/17 00:00:00,2023/11/17 00:00:00,2024/12/31 00:00:00,2024/01/31 00:00:00,,105,SEATS,0,N/A,38.1819,-85.637,,310,125,185,,,186
32725,56,605,FOOD SERVICE ESTABLISHMENT,SCHOOL CAFETERIA OR FOOD SERVICE,GREATHOUSE ELEMENTARY SCHOOL,2700,BROWNS LN,,LOUISVILLE,KY,40220,180,NO,NO,ACTIVE,PUBLIC,PUBLIC,NOT BONDED,SENT,N/A,ENGLISH,,UNKNOWN,NO,NO,NO,,OWNER,OWNER,,,,1988/07/29 00:00:00,2010/10/16 00:00:00,,,2024/12/31 00:00:00,2024/03/10 00:00:00,,95,SEATS,0,N/A,38.2262,-85.6226,,280,125,155,,,187
32726,56,605,FOOD SERVICE ESTABLISHMENT,SCHOOL CAFETERIA OR FOOD SERVICE,GREENWOOD ELEMENTARY SCHOOL,5801,GREENWOOD RD,,LOUISVILLE,KY,40258,180,NO,NO,ACTIVE,PUBLIC,PUBLIC,NOT BONDED,SENT,N/A,ENGLISH,,UNKNOWN,NO,NO,NO,,OWNER,OWNER,,,,1989/01/24 00:00:00,2010/10/16 00:00:00,,,2024/12/31 00:00:00,2024/03/12 00:00:00,,51,SEATS,0,N/A,38.1454,-85.8612,,280,125,155,,,188
32727,56,605,FOOD SERVICE ESTABLISHMENT,FOOD SERVICE,RUTH'S CHRIS STEAK HOUSE,6100,DUTCHMANS LN,,LOUISVILLE,KY,40205,180,YES,NO,ACTIVE,PUBLIC,PUBLIC,NOT BONDED,SENT,N/A,ENGLISH,,UNKNOWN,YES,NO,NO,N/A,BILLING,BILLING,,,,2007/12/19 00:00:00,2023/10/13 00:00:00,2023/11/10 00:00:00,2023/11/10 00:00:00,2024/12/31 00:00:00,2024/01/16 00:00:00,,192,SEATS,0,N/A,38.2283,-85.6395,,445,125,320,,,189
32733,56,605,FOOD SERVICE ESTABLISHMENT,FOOD SERVICE,WHITE CASTLE #10,793,EASTERN PKWY,,LOUISVILLE,KY,40217,180,YES,NO,ACTIVE,PUBLIC,PUBLIC,NOT BONDED,RCVD,PRINTED,ENGLISH,,UNKNOWN,NO,YES,NO,AREA 6,BILLING,OWNER,,,,1988/07/29 00:00:00,2023/10/13 00:00:00,2023/11/14 00:00:00,2023/11/14 00:00:00,2024/12/31 00:00:00,2024/02/05 00:00:00,,39,SEATS,0,N/A,38.215,-85.743,,405,125,280,,,190
32737,56,605,FOOD SERVICE ESTABLISHMENT,SCHOOL CAFETERIA OR FOOD SERVICE,GUTERMUTH ELEMENTARY SCHOOL,1500,SANDERS LN,,LOUISVILLE,KY,40216,180,NO,NO,ACTIVE,PUBLIC,PUBLIC,NOT BONDED,SENT,N/A,ENGLISH,,UNKNOWN,NO,NO,NO,,OWNER,OWNER,,,,1988/07/29 00:00:00,2010/10/16 00:00:00,,,2024/12/31 00:00:00,2024/03/18 00:00:00,,51,SEATS,0,N/A,38.1779,-85.8075,,280,125,155,,,191
32739,56,605,FOOD SERVICE ESTABLISHMENT,SCHOOL CAFETERIA OR FOOD SERVICE,THOMAS JEFFERSON MIDDLE SCHOOL,1501,RANGELAND RD,,LOUISVILLE,KY,40219,180,NO,NO,ACTIVE,PUBLIC,PUBLIC,NOT BONDED,SENT,N/A,ENGLISH,,UNKNOWN,NO,NO,NO,,OWNER,OWNER,,,,1988/07/29 00:00:00,2010/10/16 00:00:00,,,2024/12/31 00:00:00,2024/03/09 00:00:00,,350,SEATS,0,N/A,38.1692,-85.6794,,340,125,215,,,192
32741,56,605,FOOD SERVICE ESTABLISHMENT,SCHOOL CAFETERIA OR FOOD SERVICE,JEFFERSONTOWN HIGH SCHOOL,9600,OLD SIX MILE LN,,LOUISVILLE,KY,40299,180,NO,NO,ACTIVE,PUBLIC,PUBLIC,NOT BONDED,SENT,N/A,ENGLISH,,UNKNOWN,NO,NO,NO,,OWNER,OWNER,,,,1989/02/27 00:00:00,2010/10/16 00:00:00,,,2024/12/31 00:00:00,2024/03/27 00:00:00,,600,SEATS,0,N/A,38.201,0,,340,125,215,,,193
32743,56,605,FOOD SERVICE ESTABLISHMENT,SCHOOL CAFETERIA OR FOOD SERVICE,JOHNSONTOWN ELEMENTARY SCHOOL,7201,JOHNSONTOWN RD,,LOUISVILLE,KY,40272,180,NO,NO,ACTIVE,PUBLIC,PUBLIC,NOT BONDED,SENT,N/A,ENGLISH,,UNKNOWN,NO,NO,NO,,OWNER,OWNER,,,,1988/07/29 00:00:00,2010/10/16 00:00:00,,,2024/12/31 00:00:00,2024/03/26 00:00:00,,51,SEATS,0,N/A,38.1172,-85.8932,,280,125,155,,,194
32745,56,605,FOOD SERVICE ESTABLISHMENT,SCHOOL CAFETERIA OR FOOD SERVICE,OLMSTED ACADEMY SOUTH,5650,SOUTHERN PKWY,,LOUISVILLE,KY,40214,180,NO,NO,ACTIVE,PUBLIC,PUBLIC,NOT BONDED,SENT,N/A,ENGLISH,,UNKNOWN,NO,NO,NO,N/A,OWNER,OWNER,,,,1989/03/06 00:00:00,2010/10/16 00:00:00,,,2024/12/31 00:00:00,2024/03/19 00:00:00,,51,SEATS,0,N/A,38.1722,-85.7791,,280,125,155,,,195
32748,56,605,FOOD SERVICE ESTABLISHMENT,SCHOOL CAFETERIA OR FOOD SERVICE,FL OLMSTEAD ACADEMY NORTH,4530,BELLEVUE AVE,,LOUISVILLE,KY,40215,180,NO,NO,ACTIVE,PUBLIC,PUBLIC,NOT BONDED,SENT,N/A,ENGLISH,,UNKNOWN,NO,NO,NO,N/A,OWNER,OWNER,,,,1988/07/29 00:00:00,2010/10/16 00:00:00,,,2024/12/31 00:00:00,2024/04/22 00:00:00,,51,SEATS,0,N/A,38.1871,-85.7745,,280,125,155,,,196
32749,56,605,FOOD SERVICE ESTABLISHMENT,SCHOOL CAFETERIA OR FOOD SERVICE,SOUTHERN HIGH SCHOOL,8620,PRESTON HWY,,LOUISVILLE,KY,40219,180,NO,NO,ACTIVE,PUBLIC,PUBLIC,NOT BONDED,SENT,N/A,ENGLISH,,UNKNOWN,NO,NO,NO,AREA 8,OWNER,OWNER,,,,1988/07/29 00:00:00,2010/10/16 00:00:00,,,2024/12/31 00:00:00,2024/02/24 00:00:00,,51,SEATS,0,N/A,38.1261,-85.6816,,280,125,155,,,197
32750,56,605,FOOD SERVICE ESTABLISHMENT,SCHOOL CAFETERIA OR FOOD SERVICE,CAMP TAYLOR ELEMENTARY,1446,BELMAR DR,,LOUISVILLE,KY,40213,180,NO,NO,ACTIVE,PUBLIC,PUBLIC,NOT BONDED,SENT,N/A,ENGLISH,,UNKNOWN,NO,NO,NO,AREA 6,OWNER,OWNER,,,,1988/07/29 00:00:00,2010/10/16 00:00:00,,,2024/12/31 00:00:00,2024/04/08 00:00:00,,152,SEATS,0,N/A,38.1965,-85.719,,310,125,185,,,198
32751,56,605,FOOD SERVICE ESTABLISHMENT,SCHOOL CAFETERIA OR FOOD SERVICE,CANE RUN ELEMENTARY SCHOOL,3951,CANE RUN RD,,LOUISVILLE,KY,40211,180,NO,NO,ACTIVE,PUBLIC,PUBLIC,NOT BONDED,SENT,N/A,ENGLISH,,UNKNOWN,NO,NO,NO,,OWNER,OWNER,,,,1988/07/29 00:00:00,2010/10/16 00:00:00,,,2024/12/31 00:00:00,2024/03/11 00:00:00,,51,SEATS,0,N/A,38.2096,-85.8221,,280,125,155,,,199
32752,56,605,FOOD SERVICE ESTABLISHMENT,SCHOOL CAFETERIA OR FOOD SERVICE,CARRITHERS MIDDLE SCHOOL,4320,BILLTOWN RD,,LOUISVILLE,KY,40299,180,NO,NO,ACTIVE,PUBLIC,PUBLIC,NOT BONDED,SENT,N/A,ENGLISH,,UNKNOWN,NO,NO,NO,,OWNER,OWNER,,,,1988/07/29 00:00:00,2010/10/16 00:00:00,,,2024/12/31 00:00:00,2024/04/30 00:00:00,,51,SEATS,0,N/A,38.1814,-85.5748,August 2019: One of 6 schools changed from Area 3 to Area 9.,280,125,155,,,200
31496,56,605,FOOD SERVICE ESTABLISHMENT,SCHOOL CAFETERIA OR FOOD SERVICE,ENGELHARD ELEMENTARY SCHOOL,1004,S 1ST ST,,LOUISVILLE,KY,40203,180,NO,NO,ACTIVE,PUBLIC,PUBLIC,NOT BONDED,SENT,N/A,ENGLISH,,UNKNOWN,NO,NO,NO,,OWNER,OWNER,,,,1988/07/14 00:00:00,2010/10/16 00:00:00,,,2024/12/31 00:00:00,2024/02/17 00:00:00,,51,SEATS,0,N/A,38.2381,-85.7551,,280,125,155,,,201
31500,56,605,FOOD SERVICE ESTABLISHMENT,SCHOOL CAFETERIA OR FOOD SERVICE,FAIRDALE ELEMENTARY SCHOOL,10104,MITCHELL HILL RD,,LOUISVILLE,KY,40118,180,NO,NO,ACTIVE,PUBLIC,PUBLIC,NOT BONDED,SENT,N/A,ENGLISH,,UNKNOWN,NO,NO,NO,AREA 8,OWNER,OWNER,,,,1989/01/24 00:00:00,2010/10/16 00:00:00,,,2024/12/31 00:00:00,2024/02/25 00:00:00,,475,SEATS,0,N/A,38.1048,-85.7624,,340,125,215,,,202
31502,56,605,FOOD SERVICE ESTABLISHMENT,SCHOOL CAFETERIA OR FOOD SERVICE,FAIRDALE HIGH SCHOOL,1001,FAIRDALE RD,,LOUISVILLE,KY,40118,180,NO,NO,ACTIVE,PUBLIC,PUBLIC,NOT BONDED,SENT,N/A,ENGLISH,,UNKNOWN,NO,NO,NO,AREA 8,OWNER,OWNER,,,,1988/07/14 00:00:00,2010/10/16 00:00:00,,,2024/12/31 00:00:00,2024/05/01 00:00:00,,51,SEATS,0,N/A,38.112,-85.7516,,280,125,155,,,203
31505,56,635,SCHOOLS,SCHOOLS,FAIRDALE HIGH SCHOOL,1001,FAIRDALE ROAD,,LOUISVILLE,KY,40118,180,NO,NO,ACTIVE,PUBLIC,PUBLIC,NOT BONDED,SENT,PRINTED,ENGLISH,,UNKNOWN,NO,NO,NO,AREA 8,OWNER,OWNER,,,,1988/07/14 00:00:00,1996/10/19 00:00:00,,2002/07/12 00:00:00,2024/12/31 00:00:00,2023/10/24 00:00:00,,0,N/A,0,N/A,38.112,-85.7516,,0,0,0,,,204
31509,56,605,FOOD SERVICE ESTABLISHMENT,SCHOOL CAFETERIA OR FOOD SERVICE,FERN CREEK ELEMENTARY SCHOOL,8815,FERNDALE RD,,LOUISVILLE,KY,40291,180,NO,NO,ACTIVE,PUBLIC,PUBLIC,NOT BONDED,SENT,N/A,ENGLISH,,UNKNOWN,NO,NO,NO,AREA 3,OWNER,OWNER,,,,1988/07/14 00:00:00,2010/10/16 00:00:00,,,2024/12/31 00:00:00,2024/04/20 00:00:00,,192,SEATS,0,N/A,38.1567,-85.5952,,310,125,185,,,205
31511,56,605,FOOD SERVICE ESTABLISHMENT,SCHOOL CAFETERIA OR FOOD SERVICE,FERN CREEK HIGH SCHOOL,9115,FERN CREEK RD,,LOUISVILLE,KY,40291,180,NO,NO,ACTIVE,PUBLIC,PUBLIC,NOT BONDED,SENT,N/A,ENGLISH,,UNKNOWN,NO,NO,NO,AREA 3,OWNER,OWNER,,,,1988/07/14 00:00:00,2010/10/16 00:00:00,,,2024/12/31 00:00:00,2024/03/24 00:00:00,,1,SEATS,0,N/A,38.1564,-85.5926,,200,125,75,,,206
31512,56,605,FOOD SERVICE ESTABLISHMENT,SCHOOL CAFETERIA OR FOOD SERVICE,EMMET FIELD SCHOOL,120,SACRED HEART LN,,LOUISVILLE,KY,40206,180,NO,NO,ACTIVE,PUBLIC,PUBLIC,NOT BONDED,SENT,N/A,ENGLISH,,UNKNOWN,NO,NO,NO,AREA 1,OWNER,OWNER,,,,2009/10/20 00:00:00,2010/10/16 00:00:00,,,2024/12/31 00:00:00,2023/11/04 00:00:00,,51,SEATS,0,N/A,38.2522,-85.6783,,280,125,155,,,207
31513,56,605,FOOD SERVICE ESTABLISHMENT,SCHOOL CAFETERIA OR FOOD SERVICE,FOSTER TRADITIONAL ACADEMY,1401,S 41ST ST,,LOUISVILLE,KY,40211,180,NO,NO,ACTIVE,PUBLIC,PUBLIC,NOT BONDED,SENT,N/A,ENGLISH,,UNKNOWN,NO,NO,NO,,OWNER,OWNER,,,,1988/07/14 00:00:00,2010/10/16 00:00:00,,,2024/12/31 00:00:00,2024/02/28 00:00:00,,51,SEATS,0,N/A,38.2369,-85.8206,3-4-22: One of 6 schools changed back to Area 5 per Kimber Knight.  August 2019: One of 6 schools changed from Area 5 to Area 4.,280,125,155,,,208
31575,56,605,FOOD SERVICE ESTABLISHMENT,FOOD SERVICE (HOSPITAL / NURSING HOME,TREYTON OAK TOWERS,211,W OAK ST,,LOUISVILLE,KY,40203,180,YES,NO,ACTIVE,PUBLIC,PUBLIC,NOT BONDED,RCVD,PRINTED,ENGLISH,,UNKNOWN,YES,NO,NO,,OWNER,OWNER,,,,1990/01/26 00:00:00,2023/10/13 00:00:00,2023/11/10 00:00:00,2023/11/10 00:00:00,2024/12/31 00:00:00,2024/02/03 00:00:00,,250,SEATS,0,N/A,38.2354,-85.7583,"3-9-22: Bar addition, plans submitted & approved. Pictures provided. Documentation placed in file.  3-15-21:  Same owners but changed name from Professional Community Mgmt to The Third & Oak Corporation per area inspector, Grace Ellis.",475,125,350,,,209
31577,56,605,FOOD SERVICE ESTABLISHMENT,FOOD SERVICE (HOSPITAL / NURSING HOME,EASTERN STAR NURSING HOME,923,EASTERN STAR CT,,LOUISVILLE,KY,40204,180,YES,NO,ACTIVE,PUBLIC,PUBLIC,NOT BONDED,RCVD,PRINTED,ENGLISH,,UNKNOWN,NO,NO,NO,,OWNER,OWNER,,,,1988/07/15 00:00:00,2023/10/13 00:00:00,2023/11/03 00:00:00,2023/11/03 00:00:00,2024/12/31 00:00:00,2024/03/10 00:00:00,,42,SEATS,0,N/A,38.2428,-85.7227,,250,125,125,,,210
31578,56,605,FOOD SERVICE ESTABLISHMENT,FOOD SERVICE (HOSPITAL / NURSING HOME,EPISCOPAL CHURCH HOME,7504,WESTPORT RD,,LOUISVILLE,KY,40222,180,YES,NO,ACTIVE,PUBLIC,PUBLIC,NOT BONDED,RCVD,PRINTED,ENGLISH,,UNKNOWN,NO,NO,NO,,BILLING,OWNER,,,,1988/07/15 00:00:00,2023/10/13 00:00:00,2023/11/14 00:00:00,2023/11/14 00:00:00,2024/12/31 00:00:00,2024/02/03 00:00:00,,120,SEATS,0,N/A,38.2711,-85.6126,11-22-22: Changed from Area 1 to Area 10 per Ron Friesen.,310,125,185,,,211
31586,56,605,FOOD SERVICE ESTABLISHMENT,FOOD SERVICE (HOSPITAL / NURSING HOME,RIVER'S EDGE,6301,BASS RD,,PROSPECT,KY,40059,180,YES,NO,ACTIVE,PUBLIC,PUBLIC,NOT BONDED,RCVD,PRINTED,ENGLISH,,UNKNOWN,NO,NO,NO,AREA 2,OWNER,OWNER,,,,1988/07/15 00:00:00,2023/10/13 00:00:00,2022/12/12 00:00:00,2022/12/12 00:00:00,2023/12/31 00:00:00,2024/01/17 00:00:00,,100,SEATS,0,N/A,38.3508,-85.6267,,280,125,155,,,212
31794,56,605,FOOD SERVICE ESTABLISHMENT,SCHOOL CAFETERIA OR FOOD SERVICE,FRAYSER ELEMENTARY SCHOOL,1230,LARCHMONT AVE,,LOUISVILLE,KY,40215,180,NO,NO,ACTIVE,PUBLIC,PUBLIC,NOT BONDED,SENT,N/A,ENGLISH,,UNKNOWN,NO,NO,NO,,OWNER,OWNER,,,,1989/01/24 00:00:00,2010/10/16 00:00:00,,,2024/12/31 00:00:00,2024/02/21 00:00:00,,51,SEATS,0,N/A,38.2085,-85.7799,,280,125,155,,,213
31797,56,605,FOOD SERVICE ESTABLISHMENT,SCHOOL CAFETERIA OR FOOD SERVICE,VALLEY HIGH SCHOOL,10200,DIXIE HWY,,LOUISVILLE,KY,40272,180,NO,NO,ACTIVE,PUBLIC,PUBLIC,NOT BONDED,SENT,N/A,ENGLISH,,UNKNOWN,NO,NO,NO,AREA 7,OWNER,OWNER,,,,1988/07/25 00:00:00,2010/10/16 00:00:00,,,2024/12/31 00:00:00,2024/03/09 00:00:00,,51,SEATS,0,N/A,38.1078,-85.8678,,280,125,155,,,214
31798,56,605,FOOD SERVICE ESTABLISHMENT,SCHOOL CAFETERIA OR FOOD SERVICE,SLAUGHTER ELEMENTARY SCHOOL,3805,FERN VALLEY RD,,LOUISVILLE,KY,40219,180,NO,NO,ACTIVE,PUBLIC,PUBLIC,NOT BONDED,SENT,N/A,ENGLISH,,UNKNOWN,NO,NO,NO,AREA 6,OWNER,OWNER,,,,1988/07/25 00:00:00,2010/10/16 00:00:00,,,2024/12/31 00:00:00,2024/03/11 00:00:00,,51,SEATS,0,N/A,38.159,-85.6918,,280,125,155,,,215
31799,56,605,FOOD SERVICE ESTABLISHMENT,SCHOOL CAFETERIA OR FOOD SERVICE,SMYRNA ELEMENTARY SCHOOL,6401,OUTER LOOP,,LOUISVILLE,KY,40228,180,NO,NO,ACTIVE,PUBLIC,PUBLIC,NOT BONDED,SENT,N/A,ENGLISH,,UNKNOWN,NO,NO,NO,,OWNER,OWNER,,,,1988/07/25 00:00:00,2010/10/16 00:00:00,,,2024/12/31 00:00:00,2024/04/09 00:00:00,,51,SEATS,0,N/A,38.1388,-85.641,,280,125,155,,,216
31802,56,605,FOOD SERVICE ESTABLISHMENT,SCHOOL CAFETERIA OR FOOD SERVICE,WALDEN SCHOOL,4238,WESTPORT RD,,LOUISVILLE,KY,40207,180,NO,NO,ACTIVE,PUBLIC,PUBLIC,NOT BONDED,SENT,N/A,ENGLISH,,UNKNOWN,NO,NO,NO,AREA 1,OWNER,OWNER,,,,2009/10/20 00:00:00,2010/10/16 00:00:00,,,2024/12/31 00:00:00,2024/05/11 00:00:00,,51,SEATS,0,N/A,38.2615,-85.6379,,280,125,155,,,217
31803,56,605,FOOD SERVICE ESTABLISHMENT,SCHOOL CAFETERIA OR FOOD SERVICE,STONESTREET ELEMENTARY,10007,STONESTREET RD,,LOUISVILLE,KY,40272,180,NO,NO,ACTIVE,PUBLIC,PUBLIC,NOT BONDED,SENT,N/A,ENGLISH,,UNKNOWN,NO,NO,NO,AREA 7,OWNER,OWNER,,,,1988/07/25 00:00:00,2010/10/16 00:00:00,,,2024/12/31 00:00:00,2024/03/03 00:00:00,,51,SEATS,0,N/A,38.1091,-85.8343,,280,125,155,,,218
31804,56,605,FOOD SERVICE ESTABLISHMENT,SCHOOL CAFETERIA OR FOOD SERVICE,STUART MIDDLE SCHOOL,4601,VALLEY STATION RD,,LOUISVILLE,KY,40272,180,NO,NO,ACTIVE,PUBLIC,PUBLIC,NOT BONDED,SENT,N/A,ENGLISH,,UNKNOWN,NO,NO,NO,AREA 7,OWNER,OWNER,,,,1989/02/27 00:00:00,2010/10/16 00:00:00,,,2024/12/31 00:00:00,2024/02/24 00:00:00,,555,SEATS,0,N/A,38.1084,-85.8436,,340,125,215,,,219
31805,56,605,FOOD SERVICE ESTABLISHMENT,SCHOOL CAFETERIA OR FOOD SERVICE,BROWN SCHOOL CAFETERIA,546,S 1ST ST,,LOUISVILLE,KY,40202,180,NO,NO,ACTIVE,PUBLIC,PUBLIC,NOT BONDED,SENT,N/A,ENGLISH,,UNKNOWN,NO,NO,NO,,OWNER,OWNER,,,,1988/07/25 00:00:00,2010/10/16 00:00:00,,,2024/12/31 00:00:00,2024/02/18 00:00:00,,51,SEATS,0,N/A,38.2492,-85.7532,,280,125,155,,,220
31806,56,605,FOOD SERVICE ESTABLISHMENT,SCHOOL CAFETERIA OR FOOD SERVICE,ANCHORAGE PUBLIC SCHOOL,11400,RIDGE RD,,LOUISVILLE,KY,40223,180,NO,NO,ACTIVE,PUBLIC,PUBLIC,NOT BONDED,SENT,N/A,ENGLISH,,UNKNOWN,NO,NO,NO,AREA 2,OWNER,OWNER,,,,1988/07/25 00:00:00,2010/10/16 00:00:00,,,2024/12/31 00:00:00,2024/02/20 00:00:00,,51,SEATS,0,N/A,38.2654,0,,280,125,155,,,221
31807,56,605,FOOD SERVICE ESTABLISHMENT,SCHOOL CAFETERIA OR FOOD SERVICE,ASCENSION OF OUR LORD SCHOOL,4600,LYNNBROOK DR,,LOUISVILLE,KY,40220,180,NO,NO,ACTIVE,PUBLIC,PUBLIC,NOT BONDED,SENT,N/A,ENGLISH,,UNKNOWN,NO,NO,NO,,OWNER,OWNER,,,,2009/10/20 00:00:00,2010/10/16 00:00:00,,,2024/12/31 00:00:00,2024/03/18 00:00:00,,51,SEATS,0,N/A,38.2331,-85.6165,,280,125,155,,,222
31809,56,605,FOOD SERVICE ESTABLISHMENT,SCHOOL CAFETERIA OR FOOD SERVICE,ASSUMPTION CATHOLIC HIGH SCHOOL,2170,TYLER LN,,LOUISVILLE,KY,40205,180,NO,NO,ACTIVE,PUBLIC,PUBLIC,NOT BONDED,SENT,N/A,ENGLISH,,UNKNOWN,NO,NO,NO,,OWNER,OWNER,,,,2009/10/20 00:00:00,2010/10/16 00:00:00,,,2024/12/31 00:00:00,2024/03/10 00:00:00,,350,SEATS,0,N/A,38.2171,-85.6778,8-13-21: Old cafeteria was demolished. New cafeteria was built as an addition to the existing structure. Plans & pictures provided. Seating changed from 51 to 350.,340,125,215,,,223
31810,56,605,FOOD SERVICE ESTABLISHMENT,SCHOOL CAFETERIA OR FOOD SERVICE,ATHERTON HIGH SCHOOL,3000,DUNDEE RD,,LOUISVILLE,KY,40205,180,NO,NO,ACTIVE,PUBLIC,PUBLIC,NOT BONDED,SENT,N/A,ENGLISH,,UNKNOWN,NO,NO,NO,,OWNER,OWNER,,,,1988/07/25 00:00:00,2010/10/16 00:00:00,,,2024/12/31 00:00:00,2024/02/26 00:00:00,,51,SEATS,0,N/A,38.2141,-85.6878,,280,125,155,,,224
31812,56,605,FOOD SERVICE ESTABLISHMENT,SCHOOL CAFETERIA OR FOOD SERVICE,AUBURNDALE ELEMENTARY,5749,NEW CUT RD,,LOUISVILLE,KY,40214,180,NO,NO,ACTIVE,PUBLIC,PUBLIC,NOT BONDED,SENT,N/A,ENGLISH,,UNKNOWN,NO,NO,NO,,OWNER,OWNER,,,,1989/01/24 00:00:00,2010/10/16 00:00:00,,,2024/12/31 00:00:00,2024/03/18 00:00:00,,125,SEATS,0,N/A,38.135,-85.771,,310,125,185,,,225
31813,56,605,FOOD SERVICE ESTABLISHMENT,SCHOOL CAFETERIA OR FOOD SERVICE,HARTSTERN ELEMENTARY SCHOOL,5200,MORNINGSIDE WAY,,LOUISVILLE,KY,40219,180,NO,NO,ACTIVE,PUBLIC,PUBLIC,NOT BONDED,SENT,N/A,ENGLISH,,UNKNOWN,NO,NO,NO,AREA 8,OWNER,OWNER,,,,1989/01/24 00:00:00,2010/10/16 00:00:00,,,2024/12/31 00:00:00,2024/03/05 00:00:00,,240,SEATS,0,N/A,38.1417,-85.6666,,340,125,215,,,226
31814,56,605,FOOD SERVICE ESTABLISHMENT,SCHOOL CAFETERIA OR FOOD SERVICE,HAWTHORNE ELEMENTARY SCHOOL,2301,CLAREDON AVE,,LOUISVILLE,KY,40205,180,NO,NO,ACTIVE,PUBLIC,PUBLIC,NOT BONDED,SENT,N/A,ENGLISH,,UNKNOWN,NO,NO,NO,,OWNER,OWNER,,,,1989/01/24 00:00:00,2010/10/16 00:00:00,,,2024/12/31 00:00:00,2024/02/24 00:00:00,,225,SEATS,0,N/A,38.2187,-85.6716,,340,125,215,,,227
31815,56,605,FOOD SERVICE ESTABLISHMENT,SCHOOL CAFETERIA OR FOOD SERVICE,HAZELWOOD ELEMENTARY SCHOOL,1325,BLUEGRASS AVE,,LOUISVILLE,KY,40215,180,NO,NO,ACTIVE,PUBLIC,PUBLIC,NOT BONDED,SENT,N/A,ENGLISH,,UNKNOWN,NO,NO,NO,AREA 5,OWNER,OWNER,,,,1988/07/25 00:00:00,2010/10/16 00:00:00,,,2024/12/31 00:00:00,2024/03/05 00:00:00,,180,SEATS,0,N/A,38.1808,-85.7856,,310,125,185,,,228
31817,56,605,FOOD SERVICE ESTABLISHMENT,SCHOOL CAFETERIA OR FOOD SERVICE,HIGHLAND MIDDLE SCHOOL,1700,NORRIS PLACE,,LOUISVILLE,KY,40205,180,NO,NO,ACTIVE,PUBLIC,PUBLIC,NOT BONDED,SENT,N/A,ENGLISH,,UNKNOWN,NO,NO,NO,,OWNER,OWNER,,,,1988/07/25 00:00:00,2010/10/16 00:00:00,,,2024/12/31 00:00:00,2024/02/25 00:00:00,,51,SEATS,0,N/A,38.2234,-85.7062,,280,125,155,,,229
31818,56,605,FOOD SERVICE ESTABLISHMENT,SCHOOL CAFETERIA OR FOOD SERVICE,HITE ELEMENTARY SCHOOL,12408,SHELBYVILLE RD,,LOUISVILLE,KY,40243,180,NO,NO,ACTIVE,PUBLIC,PUBLIC,NOT BONDED,SENT,N/A,ENGLISH,,UNKNOWN,NO,NO,NO,,OWNER,OWNER,,,,1989/03/28 00:00:00,2010/10/16 00:00:00,,,2024/12/31 00:00:00,2024/03/13 00:00:00,,120,SEATS,0,N/A,38.2381,-85.5239,,310,125,185,,,230
31819,56,605,FOOD SERVICE ESTABLISHMENT,SCHOOL CAFETERIA OR FOOD SERVICE,SACRED HEART MODEL SCHOOL,3107,LEXINGTON RD,,LOUISVILLE,KY,40206,180,NO,NO,ACTIVE,PUBLIC,PUBLIC,NOT BONDED,SENT,N/A,ENGLISH,,UNKNOWN,NO,NO,NO,AREA 1,OWNER,OWNER,,,,2009/10/20 00:00:00,2010/10/16 00:00:00,,,2024/12/31 00:00:00,2024/05/13 00:00:00,,51,SEATS,0,N/A,38.2495,-85.6768,"12-17-21: Changed food service operator from Flik Independent Schools to Sage Dining per area inspector, Dana Heavrin and Exec Admin, Kelly Monahan.",280,125,155,,,231
31820,56,605,FOOD SERVICE ESTABLISHMENT,SCHOOL CAFETERIA OR FOOD SERVICE,SACRED HEART ACADEMY,3175,LEXINGTON RD,,LOUISVILLE,KY,40206,180,NO,NO,ACTIVE,PUBLIC,PUBLIC,NOT BONDED,SENT,N/A,ENGLISH,,UNKNOWN,NO,NO,NO,,OWNER,OWNER,,,,2009/10/20 00:00:00,2010/10/16 00:00:00,,,2024/12/31 00:00:00,2024/04/17 00:00:00,,51,SEATS,0,N/A,38.2505,-85.6739,"12-17-21: Changed food service operator from Ursuling Campus Schools Inc to Sage Dining per area inspector, Dana Heavrin and Exec Admin, Kelly Monahan.",280,125,155,,,232
31821,56,605,FOOD SERVICE ESTABLISHMENT,SCHOOL CAFETERIA OR FOOD SERVICE,ST. AGNES SCHOOL,1800,NEWBURG RD,,LOUISVILLE,KY,40205,180,NO,NO,ACTIVE,PUBLIC,PUBLIC,NOT BONDED,SENT,N/A,ENGLISH,,UNKNOWN,NO,NO,NO,AREA 6,OWNER,OWNER,,,,2009/10/20 00:00:00,2010/10/16 00:00:00,,,2024/12/31 00:00:00,2024/03/25 00:00:00,,51,SEATS,0,N/A,38.2205,0,,280,125,155,,,233
31822,56,605,FOOD SERVICE ESTABLISHMENT,SCHOOL CAFETERIA OR FOOD SERVICE,ST. ALBERT THE GREAT,1395,GIRARD DR,,LOUISVILLE,KY,40222,180,NO,NO,ACTIVE,PUBLIC,PUBLIC,NOT BONDED,SENT,N/A,ENGLISH,,UNKNOWN,NO,NO,NO,,OWNER,OWNER,,,,2009/10/20 00:00:00,2010/10/16 00:00:00,,,2024/12/31 00:00:00,2024/04/07 00:00:00,,51,SEATS,0,N/A,38.2712,0,,280,125,155,,,234
31824,56,605,FOOD SERVICE ESTABLISHMENT,SCHOOL CAFETERIA OR FOOD SERVICE,ST. ATHANASIUS SCHOOL,5915,OUTER LOOP,,LOUISVILLE,KY,40219,180,NO,NO,ACTIVE,PUBLIC,PUBLIC,NOT BONDED,SENT,N/A,ENGLISH,,UNKNOWN,NO,NO,NO,,OWNER,OWNER,,,,2009/10/20 00:00:00,2010/10/16 00:00:00,,,2024/12/31 00:00:00,2024/05/06 00:00:00,,51,SEATS,0,N/A,38.1395,-85.6513,,280,125,155,,,235
31827,56,605,FOOD SERVICE ESTABLISHMENT,SCHOOL CAFETERIA OR FOOD SERVICE,ST. BERNARD SCHOOL,7501,TANGELO DR,,LOUISVILLE,KY,40228,180,NO,NO,ACTIVE,PUBLIC,PUBLIC,NOT BONDED,SENT,N/A,ENGLISH,,UNKNOWN,NO,NO,NO,AREA 8,OWNER,OWNER,,,,2009/10/20 00:00:00,2010/10/16 00:00:00,,,2024/12/31 00:00:00,2024/04/08 00:00:00,,51,SEATS,0,N/A,38.1475,-85.6217,,280,125,155,,,236
31831,56,605,FOOD SERVICE ESTABLISHMENT,SCHOOL CAFETERIA OR FOOD SERVICE,ST. EDWARD'S SCHOOL,9610,SUE HELEN DR,,LOUISVILLE,KY,40299,180,NO,NO,ACTIVE,PUBLIC,PUBLIC,NOT BONDED,SENT,N/A,ENGLISH,,UNKNOWN,NO,NO,NO,AREA 3,OWNER,OWNER,,,,2009/10/20 00:00:00,2010/10/16 00:00:00,,,2024/12/31 00:00:00,2024/02/25 00:00:00,,51,SEATS,0,N/A,38.1938,-85.5803,,280,125,155,,,237
31833,56,605,FOOD SERVICE ESTABLISHMENT,SCHOOL CAFETERIA OR FOOD SERVICE,ST. FRANCIS OF ASSISI,1938,ALFRESCO PL,,LOUISVILLE,KY,40205,180,NO,NO,ACTIVE,PUBLIC,PUBLIC,NOT BONDED,SENT,N/A,ENGLISH,,UNKNOWN,NO,NO,NO,,OWNER,OWNER,,,,2009/10/20 00:00:00,2010/10/16 00:00:00,,,2024/12/31 00:00:00,2024/03/04 00:00:00,,51,SEATS,0,N/A,38.2258,-85.698,,280,125,155,,,238
31835,56,605,FOOD SERVICE ESTABLISHMENT,SCHOOL CAFETERIA OR FOOD SERVICE,ST. GABRIEL SCHOOL,5503,BARDSTOWN RD,,LOUISVILLE,KY,40291,180,NO,NO,ACTIVE,PUBLIC,PUBLIC,NOT BONDED,SENT,N/A,ENGLISH,,UNKNOWN,NO,NO,NO,,OWNER,OWNER,,,,2009/10/20 00:00:00,2010/10/16 00:00:00,,,2024/12/31 00:00:00,2024/04/16 00:00:00,,51,SEATS,0,N/A,38.1671,-85.5991,3-9-23: Changed from Area 18 to Area 3 per Tim Montgomery & Ron Friesen.,280,125,155,,,239
31838,56,605,FOOD SERVICE ESTABLISHMENT,SCHOOL CAFETERIA OR FOOD SERVICE,ST. JAMES SCHOOL,1818,EDENSIDE DR,,LOUISVILLE,KY,40204,180,NO,NO,ACTIVE,PUBLIC,PUBLIC,NOT BONDED,SENT,N/A,ENGLISH,,UNKNOWN,NO,NO,NO,,OWNER,OWNER,,,,2009/10/20 00:00:00,2010/10/16 00:00:00,,,2024/12/31 00:00:00,2024/03/11 00:00:00,,51,SEATS,0,N/A,38.2319,-85.7115,8-13-19 notified by St. James school that St Leonard School kitchen will be preparing food for the St. James students.  St. James will pick up the food and serve it.,280,125,155,,,240
31843,56,605,FOOD SERVICE ESTABLISHMENT,SCHOOL CAFETERIA OR FOOD SERVICE,NOTRE DAME ACADEMY,1925,LEWISTON DR,,LOUISVILLE,KY,40216,180,NO,NO,ACTIVE,PUBLIC,PUBLIC,NOT BONDED,SENT,N/A,ENGLISH,,UNKNOWN,NO,NO,NO,AREA 7,OWNER,OWNER,,,,2009/10/20 00:00:00,2010/10/16 00:00:00,,,2024/12/31 00:00:00,2024/03/05 00:00:00,,51,SEATS,0,N/A,38.1743,-85.8307,,280,125,155,,,241
31844,56,605,FOOD SERVICE ESTABLISHMENT,SCHOOL CAFETERIA OR FOOD SERVICE,IMMACULATA CLASSICAL ACADEMY,440,ZORN AVE,,LOUISVILLE,KY,40206,180,NO,NO,ACTIVE,PUBLIC,PUBLIC,NOT BONDED,SENT,N/A,ENGLISH,,UNKNOWN,NO,NO,NO,AREA 1,OWNER,OWNER,,,,2009/10/20 00:00:00,2010/10/16 00:00:00,,,2024/12/31 00:00:00,2024/04/13 00:00:00,,51,SEATS,0,N/A,38.2638,-85.6898,"5-10-21: Name changed from St. Leonard School to Immaculata Classical Academy per area inspector, Dana Heavrin.  8-13-19 notified by St. James school that St Leonard School kitchen will be preparing food for the St. James students.  St. James will pick up the food and serve it.",280,125,155,,,242
31846,56,605,FOOD SERVICE ESTABLISHMENT,SCHOOL CAFETERIA OR FOOD SERVICE,ST. MARTHA SCHOOL,2825,KLONDIKE LN,,LOUISVILLE,KY,40218,180,NO,NO,ACTIVE,PUBLIC,PUBLIC,NOT BONDED,SENT,N/A,ENGLISH,,UNKNOWN,NO,NO,NO,,OWNER,OWNER,,,,2009/10/20 00:00:00,2010/10/16 00:00:00,,,2024/12/31 00:00:00,2024/02/20 00:00:00,,51,SEATS,0,N/A,38.2033,-85.6415,,280,125,155,,,243
31847,56,605,FOOD SERVICE ESTABLISHMENT,SCHOOL CAFETERIA OR FOOD SERVICE,ST. MARGARET MARY CATHOLIC SCHOOL,7813,SHELBYVILLE RD,,LOUISVILLE,KY,40222,180,NO,NO,ACTIVE,PUBLIC,PUBLIC,NOT BONDED,SENT,N/A,ENGLISH,,UNKNOWN,NO,NO,NO,,OWNER,OWNER,,,,2009/10/20 00:00:00,2010/10/16 00:00:00,,,2024/12/31 00:00:00,2024/02/14 00:00:00,,51,SEATS,0,N/A,38.2506,-85.6091,,280,125,155,,,244
32111,56,605,FOOD SERVICE ESTABLISHMENT,FOOD SERVICE (DAY CARE / CHILD CARE CENTER,KIDS ACADEMY INC,5121,MILE OF SUNSHINE DR,,LOUISVILLE,KY,40219,180,YES,NO,ACTIVE,PUBLIC,PUBLIC,NOT BONDED,RCVD,PRINTED,ENGLISH,,UNKNOWN,NO,NO,NO,AREA 6,OWNER,OWNER,,,,1988/07/26 00:00:00,2023/10/13 00:00:00,2023/11/03 00:00:00,2023/11/03 00:00:00,2024/12/31 00:00:00,2023/11/07 00:00:00,,52,SEATS,0,N/A,38.1509,-85.6608,,280,125,155,,,245
32112,56,605,FOOD SERVICE ESTABLISHMENT,FOOD SERVICE,CHEDDAR BOX,3909,CHENOWETH SQUARE,,LOUISVILLE,KY,40207,180,YES,NO,ACTIVE,PUBLIC,PUBLIC,NOT BONDED,RCVD,PRINTED,ENGLISH,,UNKNOWN,YES,NO,NO,AREA 1,OWNER,OWNER,,,,1988/07/26 00:00:00,2023/10/13 00:00:00,2023/04/04 00:00:00,2023/04/04 00:00:00,2023/12/31 00:00:00,2023/12/24 00:00:00,,1,SEATS,0,N/A,38.2541,-85.6556,,335,125,210,,,246
32114,56,605,FOOD SERVICE ESTABLISHMENT,FOOD SERVICE,CORNER CAFE & PIZZERIA,9307,NEW LAGRANGE RD,,LOUISVILLE,KY,40242,180,YES,NO,ACTIVE,PUBLIC,PUBLIC,NOT BONDED,RCVD,PRINTED,ENGLISH,,UNKNOWN,NO,NO,NO,AREA 9,OWNER,OWNER,,,,1990/02/19 00:00:00,2023/10/13 00:00:00,2023/03/08 00:00:00,2023/03/08 00:00:00,2023/12/31 00:00:00,2023/11/27 00:00:00,,125,SEATS,0,N/A,38.2689,-85.58,,310,125,185,,,247
32140,56,605,FOOD SERVICE ESTABLISHMENT,FOOD SERVICE,ARBY'S #5412,6216,BARDSTOWN RD,,LOUISVILLE,KY,40291,180,YES,NO,ACTIVE,PUBLIC,PUBLIC,NOT BONDED,RCVD,PRINTED,ENGLISH,,UNKNOWN,NO,YES,NO,AREA 3,BILLING,OWNER,,,,1988/07/26 00:00:00,2023/10/13 00:00:00,2022/12/09 00:00:00,2022/12/09 00:00:00,2023/12/31 00:00:00,2024/03/05 00:00:00,,96,SEATS,0,N/A,38.1555,-85.5905,CUSTOMER CALLED AND UPDATED ADDRESS - MAILING PAYMENT WEEK OF 2-2-15 SR,435,125,310,,,248
32337,56,607,RETAIL/FOOD ESTABLISHMENT,"RETAIL-FOOD  10,001 SQ FT OR OVER",KROGER L-376,4501,OUTER LOOP,,LOUISVILLE,KY,40219,180,YES,NO,ACTIVE,PUBLIC,PUBLIC,NOT BONDED,SENT,N/A,ENGLISH,,UNKNOWN,NO,NO,NO,AREA 8,OWNER,OWNER,,,,1988/07/27 00:00:00,2023/10/13 00:00:00,2023/11/17 00:00:00,2023/11/17 00:00:00,2024/12/31 00:00:00,2024/04/30 00:00:00,,10,SEATS,55690,SQ FEET,38.1399,-85.6796,,575,500,75,,,249
32358,56,605,FOOD SERVICE ESTABLISHMENT,FOOD SERVICE,ARBY'S #5430,10704,DIXIE HWY,,LOUISVILLE,KY,40272,180,YES,NO,ACTIVE,PUBLIC,PUBLIC,NOT BONDED,RCVD,PRINTED,ENGLISH,,UNKNOWN,NO,YES,NO,AREA 7,BILLING,OWNER,,,,1988/07/27 00:00:00,2023/10/13 00:00:00,2022/11/16 00:00:00,2022/11/16 00:00:00,2023/12/31 00:00:00,2024/02/24 00:00:00,,60,SEATS,0,N/A,38.983,-85.8729,,435,125,310,,,250
32754,56,605,FOOD SERVICE ESTABLISHMENT,SCHOOL CAFETERIA OR FOOD SERVICE,CENTRAL HIGH SCHOOL,1130,W CHESTNUT ST,,LOUISVILLE,KY,40203,180,NO,NO,ACTIVE,PUBLIC,PUBLIC,NOT BONDED,SENT,N/A,ENGLISH,,UNKNOWN,NO,NO,NO,,OWNER,OWNER,,,,1988/07/29 00:00:00,2010/10/16 00:00:00,,,2024/12/31 00:00:00,2024/02/19 00:00:00,,51,SEATS,0,N/A,38.2497,-85.7704,,280,125,155,,,251
32756,56,605,FOOD SERVICE ESTABLISHMENT,SCHOOL CAFETERIA OR FOOD SERVICE,CHENOWETH ELEMENTARY SCHOOL,3622,BROWNSBORO RD,,LOUISVILLE,KY,40207,180,NO,NO,ACTIVE,PUBLIC,PUBLIC,NOT BONDED,SENT,N/A,ENGLISH,,UNKNOWN,NO,NO,NO,AREA 1,OWNER,OWNER,,,,1989/03/06 00:00:00,2010/10/16 00:00:00,,,2024/12/31 00:00:00,2023/10/10 00:00:00,,144,SEATS,0,N/A,38.2628,-85.6693,,310,125,185,,,252
